STOPID,SHORTNAME,LONGNAME,LONGITUDE,LATITUDE
4,PTP_SAL,Patio Taller Pizamos_Salida,-76.47622806,3.40383472
5,PPM_SAL,Puerto Mallarino,-76.47488111,3.43047250
6,PPM_ENT,Puerto Mallarino,-76.47488111,3.43047250
9,PVL-SAL,Patio Valle Lili,-76.51260778,3.35889750
10,PVL-ENT,Patio Valle Lili,-76.51249861,3.35891611
21,PCS-SAL,Patio Calima-Sameco Salida,-76.50469139,3.49699250
22,PCS-ENT,Patio Calima-Sameco Entrada,-76.50469139,3.49699250
41,PTP_ENT,Patio Taller Pizamos_Entrada,-76.47624833,3.40379389
500050,T.C-A1,T.Canaveralejo A1,-76.54962139,3.41476833
500051,T.C-A2,T.Canaveralejo A2,-76.54957278,3.41454278
500052,T.C-A3,T.Canaveralejo A3,-76.54936500,3.41441444
500053,T.C-A4,T.Canaveralejo A4,-76.54914250,3.41448667
500054,T.C-A5,T.Canaveralejo A5,-76.54909250,3.41466389
500055,T.C-A7,T.Canaveralejo A7,-76.54895250,3.41504694
500056,T.C-A6,T.Canaveralejo A6,-76.54900667,3.41486056
500058,T.C-A8,T.Canaveralejo A8,-76.54891333,3.41517861
500059,T.C-B2,T.Canaveralejo B2,-76.54916083,3.41477778
500060,T.C-A9,T.Canaveralejo A9,-76.54896611,3.41532500
500061,T.C-A10,T.Canaveralejo A10,-76.54908306,3.41536667
500062,T.C-A11,T.Canaveralejo A11,-76.54923083,3.41539444
500063,T.C-A12,T.Canaveralejo A12,-76.54937333,3.41530972
500100,TMENGA1,Terminal Menga C1,-76.50904167,3.48930667
500101,TMENGA2,Terminal Menga C2,-76.50893750,3.48910306
500102,TMENGA3,Terminal Menga C3,-76.50828000,3.48910667
500103,TMENGA4,Terminal Menga C4,-76.50791000,3.48890000
500104,TMENGA5,Terminal Menga B1,-76.50795833,3.48928833
500105,TMENGA6,Terminal Menga B2,-76.50823611,3.48930028
500106,TMENGA7,Terminal Menga B3,-76.50870667,3.48951500
500107,TMENGA8,Terminal Menga B4,-76.50890639,3.48945833
500108,TMENGA9,Terminal Menga A1,-76.50773806,3.48941528
500109,TMENGA10,Terminal Menga A2,-76.50791222,3.48947833
500110,TMENGA11,Terminal Menga A3,-76.50810750,3.48953639
500111,TMENGA12,Terminal Menga A4,-76.50827528,3.48956889
500112,TMENGA13,Terminal Menga A5,-76.50843972,3.48960472
500113,TMENGA14,Terminal Menga A6,-76.50861389,3.48965222
500114,TMENGA15,Terminal Menga A7,-76.50878278,3.48969417
500150,A.SANIN1,Terminal Andres Sanin B1,-76.48254306,3.44380222
500151,A.SANIN2,Terminal Andres Sanin B2,-76.48310333,3.44387611
500152,A.SANIN3,Terminal Andres Sanin B3,-76.48358722,3.44393694
500153,A.SANIN4,Terminal Andres Sanin C1,-76.48253694,3.44368472
500154,A.SANIN5,Terminal Andres Sanin C3,-76.48306028,3.44375639
500155,A.SANIN6,Terminal Andres Sanin C4,-76.48340583,3.44380556
500156,A.SANIN7,Terminal Andres Sanin D3,-76.48295167,3.44354333
500157,A.SANIN8,Terminal Andres Sanin D2,-76.48343306,3.44348889
500158,A.SANI10,Terminal Andres Sanin E3,-76.48265444,3.44337667
500159,A.SANI11,Terminal Andres Sanin E2,-76.48298833,3.44342167
500160,A.SANI12,Terminal Andres Sanin C2,-76.48273083,3.44371222
500161,A.SANI13,Terminal Andres Sanin C5,-76.48357861,3.44382639
500162,A.SANI14,Terminal Andres Sanin D1,-76.48359917,3.44348861
500163,A.SANI15,Terminal Andres Sanin E1,-76.48351694,3.44334194
500164,A.SANI16,Terminal Andres Sanin D4,-76.48275778,3.44350417
500165,A.SANI17,Terminal Andres Sanin D5,-76.48255917,3.44351000
500200,CHIMI3,Chiminangos A2,-76.49791167,3.48191500
500201,CHIMI2,Chiminangos B1,-76.49807667,3.48160167
500202,CHIMI1,Chiminangos A1,-76.49809556,3.48178639
500203,CHIMI4,Chiminangos B2,-76.49778833,3.48196389
500250,FLORAI1,Flora Industrial A1,-76.50237833,3.47820250
500251,FLORAI2,Flora Industrial B1,-76.50209500,3.47835500
500300,SALOM1,Salomia A1,-76.50695000,3.47362500
500301,SALOM2,Salomia B1,-76.50655500,3.47385167
500350,POPU1,Popular A1,-76.51088667,3.46947000
500352,POPU3,Popular A2,-76.51118333,3.46902333
500353,POPU4,Popular B2,-76.51056500,3.46967833
500400,MZAN1,Manzanares A1,-76.51343500,3.46612500
500401,MZAN2,Manzanares B1,-76.51322000,3.46632000
500450,FATI1,Fatima A1,-76.51752000,3.46289000
500451,FATI2,Fatima B1,-76.51722500,3.46297667
500500,RIOC1,Rio Cali A1,-76.52534333,3.46043000
500600,TORRE1,Torre de Cali A1,-76.53030667,3.45697833
500601,TORRE2,Torre de Cali B1,-76.53030833,3.45674833
500602,TORRE3,Torre de Cali A2,-76.53053667,3.45654833
500603,TORRE4,Torre de Cali B2,-76.53004833,3.45712000
500650,PILOT2,Piloto B1,-76.52232333,3.46014167
500700,SANIC2,San Nicolas B1,-76.52557667,3.45859333
500750,ERMI1,La Ermita A1,-76.53168167,3.45364833
500751,ERMI3,La Ermita A2,-76.53150333,3.45323500
500800,CAICED1,Plaza de Caicedo A1,-76.53134333,3.45240833
500850,CENTRO1,Centro A1,-76.53014833,3.44856833
500851,CENTRO3,Centro A2,-76.53000333,3.44811333
500900,STROSA1,Santa Rosa A1,-76.52975833,3.44723333
500950,FRAY1,Fray Damian A1,-76.52895167,3.44399833
500951,FRAY3,Fray Damian A2,-76.52878833,3.44350333
500952,FRAY5,Fray Damian A3,-76.52873000,3.44312667
501000,SANBO1,San Bosco A1,-76.53245500,3.44234000
501001,SANBO2,San Bosco B1,-76.53256500,3.44224500
501002,SANBO3,San Bosco A2,-76.53286000,3.44220833
501003,SANBO4,San Bosco B2,-76.53210833,3.44235333
501050,7AGO1,7 de Agosto A1,-76.48706667,3.44531167
501051,7AGO2,7 de Agosto B1,-76.48720000,3.44520667
501052,7AGO3,7 de Agosto A2,-76.48744667,3.44522833
501053,7AGO4,7 de Agosto B2,-76.48672500,3.44535833
501100,TREB1,Trebol A1,-76.49610667,3.44362333
501101,TREB2,Trebol B1,-76.49585833,3.44346000
501150,VICOL1,Villa Colombia A1,-76.49896667,3.44396167
501151,VICOL2,Villa Colombia B1,-76.49870667,3.44376000
501200,CHAPI1,Chapinero A1,-76.50232000,3.44439500
501201,CHAPI2,Chapinero B1,-76.50207833,3.44423833
501250,ATGI1,Atanasio Girardot A1,-76.50843667,3.44490500
501251,ATGI2,Atanasio Girardot B1,-76.50812833,3.44475833
501300,FLORE1,Floresta A1,-76.51471000,3.44534833
501301,FLORE2,Floresta B1,-76.51444333,3.44526000
501350,BELAL1,Belalcazar A1,-76.52084000,3.44417667
501351,BELAL2,Belalcazar B1,-76.52053333,3.44414000
501400,SANPAS1,San Pascual A1,-76.52714667,3.44270500
501401,SANPAS2,San Pascual B1,-76.52771583,3.44263333
501402,SANPAS3,San Pascual A2,-76.52756833,3.44272000
501403,SANPAS4,San Pascual B2,-76.52729500,3.44266500
501405,SANPAS6,San Pascual B3,-76.52680667,3.44259500
501450,SUCRE2,Sucre B1,-76.52622667,3.44355333
501451,SUCRE4,Sucre B2,-76.52636167,3.44397667
501452,SUCRE6,Sucre B3,-76.52654500,3.44445667
501500,PTCUY2,Petecuy B1,-76.52776667,3.44870833
501501,PTCUY4,Petecuy B2,-76.52793139,3.44917472
501502,PTCUY6,Petecuy B3,-76.52809167,3.44963667
501550,SANPED2,San Pedro B1,-76.52995000,3.45410000
501551,SANPED4,San Pedro B2,-76.53009667,3.45448833
501552,SANPED6,San Pedro B3,-76.53029000,3.45491333
501600,SNTLIB1,Santa Librada A1,-76.53690167,3.43999167
501601,SNTLIB2,Santa Librada B1,-76.53717500,3.43961167
501602,SNTLIB3,Santa Librada A2,-76.53738167,3.43938833
501603,SNTLIB4,Santa Librada B2,-76.53664833,3.44020333
501650,MANZA1,Manzana del Saber A1,-76.54093000,3.43495333
501651,MANZA2,Manzana del Saber B1,-76.54092167,3.43478333
501652,MANZA3,Manzana del Saber A2,-76.54122667,3.43463000
501653,MANZA4,Manzana del Saber B2,-76.54070500,3.43521833
501700,ESTAD1,Estadio A1,-76.54316167,3.43189833
501701,ESTAD2,Estadio B1,-76.54311667,3.43172167
501702,ESTAD3,Estadio A2,-76.54342833,3.43152500
501703,ESTAD4,Estadio B2,-76.54295000,3.43215833
501750,TEQUE1,Tequendama A1,-76.54703000,3.42356667
501751,TEQUE2,Tequendama B1,-76.54700000,3.42343000
501752,TEQUE3,Tequendama A2,-76.54720500,3.42313500
501753,TEQUE4,Tequendama B2,-76.54685167,3.42381500
501800,LIDO1,Lido A1,-76.54839167,3.41891167
501801,LIDO2,Lido B1,-76.54824167,3.41871833
501802,LIDO3,Lido A2,-76.54834833,3.41843333
501803,LIDO4,Lido B2,-76.54822500,3.41914667
501850,UDP1,Unidad Deportiva A1,-76.54840167,3.41527167
501851,UDP2,Unidad Deportiva B1,-76.54823833,3.41458667
501852,UDP3,Unidad Deportiva A2,-76.54854000,3.41494167
501853,UDP4,Unidad Deportiva B2,-76.54822667,3.41499333
501854,UDP5,Unidad Deportiva A3,-76.54845000,3.41447667
501855,UDP6,Unidad Deportiva B3,-76.54827833,3.41543000
501900,PLATOR1,Plaza de Toros A1,-76.54746333,3.40960417
501901,PLATOR2,Plaza de Toros B1,-76.54744833,3.40987000
501950,PAMPA1,Pampalinda A1,-76.54687333,3.40359333
501951,PAMPA2,Pampalinda B1,-76.54678167,3.40386667
502000,REFUG1,Refugio A1,-76.54646750,3.39859889
502001,REFUG2,Refugio B1,-76.54640500,3.39891833
502050,CALDAS1,Caldas A1,-76.54599333,3.39425500
502051,CALDAS2,Caldas B1,-76.54582333,3.39397833
502100,CAPRI1,Capri A1,-76.54508500,3.38828000
502101,CAPRI2,Capri B1,-76.54479833,3.38781500
502102,CAPRI3,Capri A2,-76.54499000,3.38772833
502103,CAPRI4,Capri B2,-76.54486167,3.38828000
502150,MELEN1,Melendez A1,-76.54277833,3.37701000
502151,MELEN2,Melendez B1,-76.54279000,3.37730667
502200,BUITRE1,Buitrera A1,-76.53999500,3.37253500
502201,BUITRE2,Buitrera B1,-76.54047500,3.37282833
502250,UNIVAL1,Univalle A1,-76.53662500,3.37068667
502251,UNIVAL2,Univalle B1,-76.53685167,3.37098500
502300,UNIV1,Universidades A1,-76.52925167,3.36700500
502301,UNIV2,Universidades B1,-76.52905000,3.36709000
502302,UNIV3,Universidades A2,-76.52896000,3.36682167
502303,UNIV4,Universidades B2,-76.52939500,3.36718333
502304,UNIVCOM1,Universidades C1,-76.52821083,3.36655583
502305,UNIVCOM2,Universidades D1,-76.52821000,3.36666667
502350,VERSALL1,Versalles A1,-76.52710167,3.46115167
502351,VERSALL2,Versalles B1,-76.52690333,3.46129333
502400,L.AMERI1,Las Americas A1,-76.52530833,3.46351667
502401,L.AMERI2,Las Americas B1,-76.52514167,3.46373000
502450,PRADNOR1,Prados del Norte A1,-76.51970000,3.47439167
502451,PRADNOR2,Prados del Norte B1,-76.51947833,3.47436167
502500,VIPASA1,Vipasa A1,-76.51705833,3.47859500
502501,VIPASA2,Vipasa B1,-76.51688667,3.47875333
502550,ALAMOS1,Alamos A1,-76.51338667,3.48446000
502551,ALAMOS2,Alamos B1,-76.51325000,3.48468833
502600,N.LATIR2,Nuevo Latir B1,-76.48674361,3.41832444
502601,N.LATIR1,Nuevo Latir A1,-76.48684028,3.41847861
502650,AMANECE2,Amanecer B1,-76.49077639,3.42143972
502651,AMANECE1,Amanecer A1,-76.49088111,3.42158306
502700,TRONCAL2,Troncal Unida B1,-76.49453278,3.42472889
502701,TRONCAL1,Troncal Unida A1,-76.49461639,3.42487694
502750,CONQUIS2,Conquistadores B1,-76.50525667,3.42697944
502751,CONQUIS1,Conquistadores A1,-76.50530861,3.42710556
502800,VLNUEVA2,Villa Nueva B1,-76.51014417,3.43207500
502801,VLNUEVA1,Villa Nueva A1,-76.51023500,3.43216278
502850,ST.MONI2,Santa Monica B1,-76.51391583,3.43453194
502851,ST.MONI1,Santa Monica A1,-76.51394694,3.43459889
502900,PRIMITI2,Primitivo B1,-76.51854444,3.43795583
502901,PRIMITI1,Primitivo A1,-76.51861611,3.43804167
502950,C.PALOS2,Cien Palos B1,-76.52276389,3.43973667
502951,C.PALOS1,Cien Palos A1,-76.52284722,3.43977972
511005,C13K100,Cl 13 con Kr 100,-76.53716750,3.37356972
511006,C13K89,Cl 13 entre Kr 89 y 100,-76.53746056,3.37470444
511008,C13K87,Cl 13 entre Kr 87 y 89,-76.53765833,3.37826583
511011,C13K86,Cl 13 con Kr 86,-76.53763667,3.38024500
511012,C13K831,Cl 13 con Kr 83 y 85,-76.53820500,3.38231333
511016,C25K101,Cl 25 entre Kr 101 y 102,-76.52444500,3.36230833
511018,K98C25,Kr 98 entre Cl 25 y 28,-76.52304972,3.37073222
511019,C42K84,Cl 42 entre Kr 84 y 85,-76.52044861,3.38308583
511020,C25UAUT,Cl 25 entre Kr 114A y 118,-76.52350167,3.35325056
511021,C25UAUT2,Cl 25 entre Kr 117 y 114A,-76.52330611,3.35317500
511031,K127C18A,Kr 127 entre Cl 18A y 18,-76.53205750,3.33343611
511033,C25K99,Cl 25 entre Kr 99 y 98B,-76.52471611,3.36881306
511034,K99C25,Kr 99 entre Cl 25 y 30 La 14 del Lili,-76.52330722,3.36731444
511035,K122C151,Kr 122 entre Cl 16 y 15,-76.53685361,3.34280778
511036,K122C152,Kr 122 entre Cl 15 y 16,-76.53657528,3.34269722
511037,K122C121,Kr 122 entre Cl 13 y 12,-76.54065833,3.34262500
511038,K122C122,Kr 122 entre Cl 12 y 13,-76.54116333,3.34233389
511039,K122C61,Kr 122 entre Cl 12 y 6,-76.54412444,3.34254694
511040,K122C62,San Buenaventura2,-76.54347417,3.34218500
511043,K118C241,Kr 118 entre Cl 25 y 22,-76.52514583,3.35090194
511044,K118C201,Kr 118 entre Cl 20 y 18,-76.52909917,3.35071222
511045,K122C17A,Kr 122 entre Cl 17A y 16,-76.53284028,3.34306806
511046,C18CARU1,Cl 18 entre Kr 122 y 121,-76.53080889,3.34381083
511048,VBUITREY,Via a la Buitrera La Y,-76.55778056,3.36360639
511049,VBUIRAPI,Via a la Buitrera Rapitienda La Buitrera,-76.56288056,3.36476806
511050,VBUIDIAN,Via a la Buitrera Colegio Diana Oese,-76.56442000,3.36597333
511051,VBUIFERR,Via a la Buitrera Ferretería el Portento,-76.56240472,3.36868833
511052,VBUIGIRA,Via a la Buitrera Girasoles Web Café,-76.56418944,3.37193000
511053,VBUIPIED,Via a la Buitrera Sector Las Piedras Km ,-76.56514778,3.37617972
511054,VBUIPIE2,Via a la Buitrera Las Piedras,-76.56512417,3.37608917
511056,VBUIMACO,Via a la Buitrera Callejon Macondo,-76.57173222,3.38268028
511059,VBUITIEN,Via a la Buitrera Tienda Inicio de ruta,-76.57814111,3.38284583
511061,VBUIFINC,Via a la Buitrera Finca Santa Ana,-76.57151833,3.38244000
511062,VBUIGOLD,Via a la Buitrera Golden Net,-76.56833750,3.37902389
511064,VBUISECT,Via a la Buitrera Sector Girasoles,-76.56434722,3.37218528
511066,VBUIFER,Via a la Buitrera Ferreteria La Buitrera,-76.56459306,3.36655778
511067,VBUICOLE,Via a la Buitrera Colegio,-76.56304583,3.36484611
511068,VBUIY2,Via a la Buitrera Y,-76.55795083,3.36362722
511069,C13K101A,Cl 13 entre Kr 101A y 102,-76.53731222,3.36850944
511070,VBUIPINO,Via a la Buitrera Los Pinos,-76.55503417,3.36322861
511071,VBUILOSP,Via a la Buitrera Los Pinos,-76.55521972,3.36320528
511072,C4OK94P,Cl 4 Oe con Kr 94,-76.55960083,3.37605500
511073,VBUISENA,Vía a la  Buitrera SENA-1,-76.55981000,3.36410028
511074,VBUISEN2,Vía a la  Buitrera SENA,-76.56004056,3.36403861
511075,VBUICO,Vía a la Buitrera Colacteos,-76.56199917,3.36627472
511076,VBUICOLA,Vía a la Buitrera Colacteos,-76.56206250,3.36622639
511077,VBUIDUQU,Vía a la Buitrera Duquelandia,-76.56711583,3.37653139
511078,VBUIPANA,Vía a la Buitrera Panaderia Nueva Vida,-76.56841222,3.37962361
511079,VBUILAJA,Vía a la Buitrera Colegio Las Lajas,-76.56916861,3.38156028
511080,VBUICAPR,Vía a la Buitrera Capricho Km 6,-76.57501833,3.38253028
511081,VBUIK7,Vía a la Buitrera Km 7,-76.57808167,3.38291500
511082,VBUIBAJA,Vía a la Buitrera Colegio Las Lajas Baja,-76.56931889,3.38157472
511083,VBUIFATI,Vía a la Buitrera Fatima,-76.56668000,3.37679389
511084,VBUISPOR,Vía a la Buitrera Sector El Portento,-76.56233861,3.36848889
511085,V_CASC10,Vía Principal Cascajal,-76.51654361,3.31792444
511086,C18K1413,Cl 18 con Kr 141,-76.53514556,3.32198417
511087,C18K1414,Cl 18 con Kr 141,-76.53492556,3.32192889
511089,C42K83A,Cl 42 entre Kr 83B y 83A,-76.52016361,3.38495833
511090,C42K81A,Cl 42 entre Kr 81A y 81 Lote,-76.51997222,3.38748028
511093,C48K82,Cl 48 entre Kr 82 y 83Bis,-76.51632722,3.38595806
511094,C48K83C,Cl 48 entre Kr 83C y 83E,-76.51631500,3.38304361
511095,C48K85,Cl 48 entre Kr 85 y 86,-76.51630639,3.37987889
511098,C42K85E,Cl 42 entre Kr 85E y 85D,-76.52028861,3.38020361
511099,C42K83E,Cl 42 entre Kr 84 y 83E,-76.52026611,3.38245417
511100,K99C45,Kr 99 entre Cl 45 y 42,-76.52032750,3.36846833
511102,C14K85B,Cl 14 entre Kr 85B y 85A,-76.53311028,3.38159278
511103,C14K84,Cl 14 entre Kr 84 y 83C,-76.53315917,3.38394306
511104,C14K832,Cl 14 entre Kr 83 y 84,-76.53335806,3.38394417
511105,C14K85A1,Cl 14 entre Kr 85A y 85B,-76.53329167,3.38151222
511106,K80C48,Kr 80 entre Cl 45 y 48,-76.51791222,3.38841056
511109,C16K75A,Cl 16 entre Kr 75A y 73,-76.52822000,3.38941361
511110,HORMI2,Hormigero2,-76.52133167,3.34123333
511111,HORMI1,Hormiguero1,-76.52366667,3.34338000
511112,VIA_PUER,Via_puerto_tejada,-76.49794972,3.32170222
511113,COL_FRAY,Cali_puerto-col-fray damian,-76.49527833,3.31986833
511114,CASCAJAL,Puerto_cascajal,-76.49196833,3.31718333
511115,V_HORMI3,Via principal_hormiguero3,-76.48815833,3.31407167
511116,V_HORMI4,Via_principal hormi4 089,-76.48418000,3.31316667
511117,V_HORMI5,Via_hormi5_col asuncion,-76.48129889,3.31227861
511118,V_HORMI6,V_hormi C216,-76.47839000,3.31257722
511119,V_HORMI7,V-hormi7 C122,-76.48192222,3.31291917
511120,V_HORMI8,V_hormi8 C087,-76.48432667,3.31323833
511121,V_HORMI9,V_hormi9 rosy,-76.48819000,3.31402000
511122,CAL_PUER,Via cali_puerto,-76.49057167,3.31610167
511123,V_CASCA2,via_cascajal2,-76.49263028,3.31688889
511124,V_CASCA3,Via_cascajal3 urb flamenco,-76.49850111,3.31653361
511125,V_CASCA4,Via_cascajal4 Centro educativo,-76.50331472,3.31634278
511126,V_CASCA5,Via_cascajal5,-76.50737833,3.31642361
511127,V_CASCA6,Via_cascajal6 equilar C099,-76.51170444,3.31792722
511128,V_CASCA7,Via_cascajal7 col-santa maria pance,-76.51392750,3.31810639
511129,V_CASCA8,Via_cascajal8 Conchita,-76.51866750,3.31783750
511130,V_CASCA9,Via_cascajal9 Presentacion,-76.52182750,3.31753583
511131,MARAÑON,Urb Marañon,-76.50854333,3.33053333
511132,C36K128,Cl 36 entre Kr 128 y 129,-76.52289139,3.33020833
511134,C36K146,Cl 36 entre Kr 146 y 148,-76.52311583,3.31385500
511135,C36K170,Cl 36 entre Kr 170 y 168,-76.52238778,3.29623417
511136,C36K134,Cl 36 entre Kr 134 y 128,-76.52269611,3.33035889
511137,C25K118,Cl 25 entre Kr 122 y 118,-76.52411667,3.34679250
511138,AV-MELEN,Av los Cerros Melendez,-76.54928528,3.34454583
511139,AV-MELE2,Av los Cerros con Cl 2 Acceso Vial,-76.55718222,3.34833500
511140,ECOPAR11,Via La Voragine Ecoparque 1 entrada,-76.56272194,3.34945139
511141,ECOPAR21,Via La Voragine Ecoparque 2 entrada,-76.56544556,3.34941667
511142,ECOPAR31,Via La Voragine Ecoparque 3 entrada,-76.56998750,3.34879722
511143,ECOPAR41,Via La Voragine Ecoparque 4 entrada,-76.57243861,3.34867167
511144,VORAGI1,La Voragine Fin,-76.58889111,3.34468750
511145,VORAGI2,La Voragine Ini,-76.58878556,3.34499194
511146,ECOPAR42,Via La Voragine Ecoparque 4 entrada,-76.57235528,3.34857306
511147,ECOPAR32,Via La Voragine Ecoparque 3 entrada,-76.56993444,3.34868333
511148,ECOPAR22,Via La Voragine Ecoparque 2 entrada,-76.56527500,3.34925361
511149,ECOPAR12,Via La Voragine Ecoparque 1 entrada,-76.56258167,3.34933389
511150,AV-MELE1,Av los Cerros con Cl 2 Acceso Vial,-76.55664444,3.34808500
511151,K122C4,Kr 122 entre Cl 4 y 5,-76.54749583,3.34204722
511152,K109C25,Kr 109 entre Cl 25 y 26 Entrada Callejon,-76.52368139,3.35890361
511153,K109C50,Kr 109 con Cl 50 Reformatorio Valle del ,-76.51448167,3.35834000
511154,K109C57,Kr 109 con Cl 57 Colegio Philadelphia,-76.51084000,3.35805333
511155,K118COM1,Kr 118 Callejon Jagua Comfenalco Valle d,-76.50294111,3.35919278
511156,K118JUV1,Kr 118 Callejon Jagua Colegio Juvenilia,-76.49876194,3.36174361
511157,K118JAG1,Kr 118 Callejon Jagua Club Cañasgordas,-76.49529222,3.36366861
511158,K118JUV2,Kr 118 Callejon Jagua Colegio Juvenilia,-76.49855778,3.36204333
511159,K118COM2,Kr 118 Callejon Jagua Comfenalco Valle d,-76.50338222,3.35913889
511160,K109C571,Kr 109 con Cl 57 PVL,-76.51119889,3.35819639
511161,K109C501,Kr 109 con Cl 50 Reformatorio Valle del ,-76.51399389,3.35839417
511162,K109C26,Kr 109 entre Cl 26 y 25,-76.52363944,3.35903806
511163,K95C4,Kr 95 entre Cl 4 y 3D,-76.54764139,3.37418444
511164,K95C3,Kr 95 entre Cl 3 y Kr 95A,-76.54948500,3.37407083
511165,K94BC2B,Kr 94B entre Cl 2B y 2,-76.55144639,3.37532667
511166,K94CC2,Kr 94C entre Cl 2 y 1A Oeste,-76.55343667,3.37415583
511167,K95C1AO,Kr 95C con Cl 1A Oeste,-76.55514028,3.37357472
511168,K96C1O,Kr 96 entre Cl 1 Oe y 2 Oe,-76.55563500,3.37329222
511169,C4OK94B,Cl 4 Oe entre Kr 94B y 94A,-76.55761278,3.37335500
511170,C4OK94A,Cl 4 Oe entre Kr 94A y 94,-76.55923278,3.37520806
511171,C4OK94BI,Cl 4 Oe entre Kr 94 Bis y 94A,-76.55916694,3.37503972
511172,K96C3O,Kr 96 entre Cl 3 Oe y 1 Oe,-76.55603694,3.37329028
511173,K95C1AO1,Kr 95 entre Cl 1a Oe y 1A,-76.55476444,3.37339111
511174,K94CC1O,Kr 94C entre Cl 1 Oe y 1B,-76.55448889,3.37429194
511175,K94BC2,Kr 94B entre Cl 2 y 2B,-76.55191722,3.37521194
511176,C2BK95A,Cl 2B entre Kr 95A y 94D,-76.55034278,3.37442028
511177,K95C3C,Kr 95 entre Cl 3 y 3C,-76.54854556,3.37406722
511178,C16K100,Cl 16 entre Kr 100 y 102,-76.53065111,3.36603222
511179,C18K105,Cl 18 entre Kr 105 y 106,-76.53193083,3.36332778
511180,C18K1301,Cl 18 entre Kr 130 y 137,-76.53355056,3.32642194
511181,C18K1302,Cl 18 entre Kr 137 y 130,-76.53339444,3.32639611
511183,K102C12,Kr 102 entre Cl 12 y 11B,-76.53986944,3.36818028
511187,K100C11,Kr 100 entre Cl 11 y 12,-76.53917389,3.37200806
511192,C18K106,Cl 18 entre Kr 106 y 108,-76.53097833,3.36064667
511193,C18K114,Cl 18 entre Kr 106 y 114,-76.53055500,3.35821167
511194,C18K114B,Cl 18 entre Kr 114B y 115,-76.53034583,3.35242194
511195,C18K122,Cl 18 entre Kr 115 y 122,-76.53091917,3.34364833
511196,C18K125,Cl 18 entre Kr 122 y 125,-76.53109389,3.34128417
511197,C18K125A,C18 entre K125 y 125A,-76.53166000,3.33772167
511198,C18K126,Cl 18 entre Kr 126 y 127,-76.53248500,3.33401333
511199,C18K127,Cl 18 entre Kr 127 y 129,-76.53288000,3.33062500
511201,C18K137,Cl 18 entre Kr 137 y 141,-76.53446222,3.32392833
511202,C18K141,Cl 18 entre Kr 141 y 142,-76.53590806,3.31976611
511203,C18K146,Cl 18 entre Kr 146 y 152,-76.53759278,3.31494167
511204,C18K170,Cl 18 con Kr 170,-76.54006694,3.30738333
511206,C18K1682,Cl 18 con Kr 168 2,-76.53947361,3.30914944
511207,C18K150,Cl 18 entre Kr 150 y 146,-76.53735139,3.31514750
511208,C18K142,Cl 8 entre Kr 142 y 141,-76.53568472,3.31971056
511209,C18K1412,Cl 18 entre Kr 141 y 137,-76.53425917,3.32376806
511210,C18K1291,Cl 18 entre Kr 129 y 127C,-76.53285667,3.32905500
511212,C18K127C,Cl 18 entre Kr 127C y 127,-76.53260833,3.33272500
511213,C18K1272,Cl 18 entre Cl 127 y 125,-76.53150167,3.33764833
511215,K125C23A,K 125 con CL 23A,-76.52632750,3.33857972
511221,K168C36,Kr 168 con Cl 36,-76.52312778,3.29753639
511222,C25K98B,Cl 25 entre Kr 98B y 98,-76.52471278,3.37007139
511223,C42K99,Cl 42 entre Kr 99 y 98A,-76.52059639,3.36910722
511224,C45K103,Cl 45 entre Kr 103 y 102,-76.51891056,3.36556361
511225,C45K100,Cl 45 entre Kr 100 y 99,-76.51889833,3.36715250
511226,K99C30,Kr 99 con Cl 30,-76.52227389,3.36797083
511227,K94C45,Kr 94 entre Cl 45 y 48,-76.51705306,3.37529583
511228,C48K92,Cl 48 entre Kr 92 y 90,-76.51624333,3.37670889
511230,C48K90,Cl 48 entre Kr 90 y 92,-76.51663833,3.37698083
511232,C25K1251,Cl 25 entre Kr 125 y 127,-76.52466528,3.33829056
511234,C13K100U,Cl 13 con Kr 100,-76.53722639,3.37533139
511235,K80C5,Kr 80 entre Cl 5 y 6A,-76.54130028,3.38628472
511237,C16K93,Cl 16 entre Kr 93 y 92,-76.52905417,3.37597472
511238,K85CC16,Kr 85C entre Cl 16 y 15,-76.52982583,3.38062056
511239,K86C14A,Kr 86 entre Cl 14A y 14,-76.53224361,3.38007528
511242,K86C17,Kr 86 entre Cl 17 y 18,-76.52732722,3.37931500
511243,K80C13A1,Kr 80 entre Cl 13A1 y 13B,-76.53611667,3.38699806
511248,AUT-JAM1,Autopista Cali - Jamundi - Sede Club Ame,-76.52286722,3.31779028
511249,C18K114A,Cl 18 entre Kr 114B y 114A,-76.53015917,3.35314278
511250,C18K111,Cl 18 entre Kr 111 y 109,-76.53042583,3.35799611
511251,C25K1051,Cl 25 entre Kr 104 y 105,-76.52408417,3.35915583
511252,C25K1052,Cl 25 entre Kr 105 y 104,-76.52390889,3.35915611
511254,K127C36,Kr 127 entre Cl 36 y 25,-76.52475333,3.33503833
511255,K127C21A,Kr 127 entre Cl 21A y 21,-76.52858167,3.33518167
511256,C25K122,Cl 25 entre Kr 121 y 122,-76.52439389,3.34407444
511257,C25K1222,Cl 25 entre Kr 122 y 121,-76.52411889,3.34474250
511260,C18UJAV1,Cl 18 entre Kr 115 y 122,-76.53060333,3.34796111
511261,C18UJAV2,Cl 18 entre Kr 121 y 118,-76.53047806,3.34808750
511262,K118C22A,K118 entre CL20 y 22A Alferes Real,-76.52852500,3.35067417
511263,C25K117,K118 entre CL22Ay25 Colegio La Sagrada F,-76.52503444,3.35085639
511264,C18K108,Cl 18 entre Kr 108 y 106A,-76.53090500,3.36102333
511265,C16K103,Cl 16 entre Kr 105 y 103,-76.53140667,3.36469000
511267,C48K86,Cl 48 entre Kr 86 y 85,-76.51622000,3.38004333
511268,C48K83E,Cl 48 entre Kr 83E y 84,-76.51621639,3.38263500
511269,C48K83A,Cl 48 entre Kr 83A y 82A,-76.51621000,3.38543722
511270,C48K80,Cl 48 entre Kr 80 y 81,-76.51620500,3.38753139
511271,K80C45,Kr 80 entre Cl 45 y 46,-76.51817444,3.38852250
511272,C42K81,Cl 42 entre Kr 80 y 81,-76.52019444,3.38768556
511273,C42K81Y4,Cl 42 entre Kr 81 y 84,-76.52038167,3.38491611
511274,K83CC32,Kr 83C entre Cl 36 y 34,-76.52188333,3.38386833
511275,C25K83C1,Cl 25 entre Kr 83 y 83C,-76.52450806,3.38446944
511276,C25K83B2,Cl 25 entre Kr 83A y 83B,-76.52518861,3.38460778
511277,C25K90,Cl 25 entre Kr 90 y 86,-76.52446000,3.37872000
511278,C25K862,Cl 25 entre Kr 85C y 86,-76.52544361,3.37957861
511279,C25K89,Cl 25 entre Kr 89 y 94,-76.52546889,3.37660833
511281,C25K981,Cl 25 entre Kr 98 y 100,-76.52559500,3.37046528
511282,K98C16,Kr 98 entre Cl 16 y 18,-76.52770583,3.37089861
511283,C25K96,Cl 25 entre Kr 96 y 94,-76.52456611,3.37451639
511284,C25K952,Cl 25 entre Kr 95 y 98,-76.52554861,3.37329167
511285,C5K941,Cl 5 con Kr 94,-76.54295000,3.37708000
511286,K94C4C,Kr 94 entre Cl 4D y 4C,-76.54509833,3.37563500
511287,C4K93,Cl 4 entre Kr 92 y 94,-76.54714167,3.37586833
511288,K92C2C,Kr 92 entre Cl 3A y 2C,-76.54818500,3.37728333
511292,K94C4A,Kr 94 entre Cl 4 y 4A,-76.54656917,3.37486278
511293,C2K931,Cl 2 entre Kr 93 y 94,-76.55239528,3.37685111
511295,C4K922,Cl 4 entre Kr 92 y 89,-76.54455000,3.37762167
511298,C25K83C,Cl 25 entre Kr 83C y 85,-76.52436500,3.38241667
511299,C4DK94,Cl 4D entre Kr 94 y 93,-76.54460500,3.37614806
511301,C16K90UR,Cl 16 entre Kr 90 y 89 Urb. San Joaquin,-76.52893833,3.37771333
511305,K86C14,Kr 86 entre Cl 14 y 16 Univalle,-76.53240250,3.37969583
511309,K56C13G,Kr 56 entre Cl 13G y 13F,-76.53240667,3.40420000
511310,K56C13E,Kr 56 entre Cl 13E y 14,-76.53241833,3.40400667
511311,K56C13F,Kr 56 entre Cl 13F y 13,-76.53462500,3.40492500
511312,K56C13C,Kr 56 entre Cl 13 y 13C,-76.53474361,3.40478139
511313,K56C13,Kr 56 entre Cl 13 y 12A,-76.53665444,3.40557333
511315,K56C11A,Kr 56 entre Cl 11A y 10A,-76.53855111,3.40618556
511316,K56C11,Kr 56 entre Cl 10A y 11A,-76.53882667,3.40609667
511317,K98C30,Kr 98 entre Cl 30 y 42,-76.52156028,3.37073194
511318,C42K96,Cl 42 entre Kr 96 y 98,-76.52093917,3.37145639
511319,C42K95,Cl 42 entre Kr 95 y 94A,-76.52029639,3.37181306
511320,C42K94A,Cl 42 entre Kr 94A y 95,-76.52086833,3.37411861
511321,C42K952,Cl 42 entre Kr 95 y 94A 2,-76.52025722,3.37419500
511322,C42K91,Cl 42 entre Kr 91 y 92,-76.52079000,3.37673667
511323,C42K92,Cl 42 entre Kr 92 y 91,-76.52017528,3.37677083
511324,C42K85C,Cl 42 entre Kr 85C y 85E,-76.52048972,3.38021389
511329,C42K98,Cl 42 entre Kr 98 y 98B,-76.52099694,3.36969944
511334,C25K127,Cl 25 entre Kr 127 y 128,-76.52356167,3.33334667
511335,LABESTE,Aut Cali Jamun-Lab estelar,-76.52248667,3.32267556
511337,CMETROP,Cementerio Metropolitano,-76.52296917,3.31182639
511338,K168CREC,Kr 168 Centro Recreativo Comfandi Pance,-76.53121056,3.30131000
511339,K180HCA,K180 Hacienda Castillo,-76.52381583,3.29059556
511341,UANARIÑO,Univ Antonio Nariño,-76.52281278,3.31381917
511343,LESTELA,Lab Estelar - Jamun Cali,-76.52218389,3.32333222
511344,PTROBRAS,E Servicio Petrobras,-76.52342972,3.33344194
511346,C18K1121,Calle 18 entre Calle 112 y 111,-76.53031306,3.35568972
511347,C18K1142,Cl 18 entre Kr 114 y 114B,-76.53044472,3.35588972
511348,C13K83,Cl 13 entre Kr 83 y 81,-76.53816750,3.38330639
511349,C16K98,Cl 16 entre Kr 98 y 94,-76.52933333,3.37200111
511350,C4OK94,Cl 4 Oe con Kr 94,-76.55971944,3.37645389
511351,C4OK91,Cl 4 Oe con Kr 91,-76.56090417,3.37794556
511352,C4OK89,Cl 4 Oe con Kr 89,-76.56129389,3.37975861
511353,C4OK90,Cl 4 Oe con Kr 90,-76.56139583,3.37970444
511354,C4OK92,Cl 4 Oe con Kr 92,-76.56078944,3.37787139
511355,K109C42,Kr 109 con Cl 42,-76.52093500,3.35874000
511356,K109K118,Kr 109 con Kr 118,-76.50697861,3.35743944
511357,K118K109,Kr 118 con Kr 119,-76.50681750,3.35753306
511358,K109C422,Kr 109 con Cl 42,-76.52091917,3.35886111
511359,C18K1701,Cl 18 con Kr 170 1,-76.54022111,3.30745806
511360,C18K1271,Cl 18 entre Kr 129 y 127C 1,-76.53277750,3.33073028
511361,C18K118,Cl 18 entre Kr 118 y 120,-76.53072500,3.34787750
511362,K93C4,Kr 93 entre Cl 4 y 3A,-76.54761444,3.37544722
511363,K93C3A,Kr 93 entre Cl 3A y 2C,-76.54980556,3.37552306
511364,K94AC2A,Kr 94A entre Cl 2A y 2,-76.55225028,3.37585250
511365,C2K94,Cl 2 entre Kr 94 y 93,-76.55226389,3.37721472
511366,K93C1,Kr 93 entre Cl 1Bis y 1A,-76.55326972,3.37771111
511371,C2BOK93,Cl 2B Oe entre Kr 93 y 93A,-76.55674778,3.37826722
511372,K93C1A,Kr 93 con Cl 1A,-76.55367944,3.37766833
511377,K93C3B,Kr 93 entre Cl 3B y 3C,-76.54782250,3.37539556
511378,CA_CHAPA,Callejon Chaparral,-76.52028000,3.31761750
511379,VBUITRE1,Vía a la Buitrera 1,-76.56377556,3.37092278
511380,VBUITRE2,Vía a la Buitrera 2,-76.56363556,3.37078389
511381,VORA-1,Via La Voragine Hacienda La Rivera EMCAL,-76.56002639,3.34901194
511382,VORA-2,Via La Voragine Hacienda La Rivera EMCAL,-76.56027083,3.34893222
511383,V_HORM10,Via Principal del Hormiguero,-76.47959278,3.31229000
511384,V_HORM11,Via Principal del Hormiguero,-76.48054833,3.31224639
511385,C42K114A,Cl 42 entre Kr 114A y 112,-76.52021222,3.35449694
511386,C42K112,Cl 42 entre Kr 112 y 109,-76.52028583,3.35841278
511387,C42K109,Cl 42 entre Kr 112 y 109,-76.52025167,3.35632194
511388,C5K85Y86,Cl 5 entre Kr 85 y 86,-76.54382250,3.38027194
511389,C2CK94,Cl 2C entre Kr 94 y 94A,-76.55047139,3.37568111
511390,K94AC3A,Kr 94A entre Cl 3A y 3B,-76.54836111,3.37541361
511391,K94C4E,Kr 94 con Cl 4E,-76.54372556,3.37612667
511392,K93C1B,Kr 93 con Cl 1B Oe,-76.55476833,3.37788778
511393,K93AC1B,Kr 93A entre Cl 1B y 2B Oe,-76.55599111,3.37782167
511394,K93C2B1,Kr 93 con Cl 2B1 Oe,-76.55704889,3.37857333
511395,C2OK2B,Cl 2 Oe entre K2B2 y 2B,-76.55822250,3.38026583
511396,ALUISA,Altos de la Luisa,-76.55730194,3.38110778
511397,C2OK2B2,Cl 2 Oe entre Kr 2B y 2B2,-76.55816139,3.38036583
511399,K93C2B2,Kr 93 con Cl 2B2 Oe,-76.55528306,3.37772722
511400,K94C2,Kr 94 entre Cl 2 y 2A,-76.55197278,3.37572639
511401,C2CK94A,Cl 2C entre Kr 94A y 95,-76.55043389,3.37542694
511402,C42K100A,Cl 42 con Kr 100A,-76.52057972,3.36624556
511403,K104C42,Kr 104 entre Cl 42 y 45,-76.51994528,3.36460444
511404,C48K99,Cl 48 entre Kr 99 y 100,-76.51667194,3.36783389
511405,C48K100,Cl 48 entre Kr 100 y 102,-76.51663528,3.36602250
511406,C50K102,Cl 50 entre Kr 102 y 100,-76.51417833,3.36622694
511407,K99C50,Kr 99 entre Cl 50 y 48,-76.51478750,3.36842778
511408,K99C451,Kr 99 con Cl 45,-76.51869528,3.36843722
511409,K109C421,Kr 109 con Cl 42,-76.51839806,3.35859500
511412,K109C423,Kr 109 con Cl 42,-76.51828194,3.35865972
511413,C42K1121,Cl 42 entre Kr 109 y 112,-76.52042722,3.35634361
511414,C42K1122,Cl 42 entre Kr 112 y 114A,-76.52042694,3.35449944
511415,K114AC42,Kr 114A entre Cl 42 y 25,-76.52303667,3.35438444
511416,C48K94,Cl 48 entre Cr 94 y 95,-76.51665417,3.37484444
511417,C48K96,Cl 48 entre Cr 96 y 97,-76.51663750,3.37233083
511418,K98C45,Cr 98 entre Cl 45 y 42,-76.51906972,3.37086722
511419,K86C35,Cr 86 entre Cl 35 y 34,-76.52111917,3.37925917
511420,K85CC33,Cr 85C entre Cl 33 y 28,-76.52323889,3.38009944
511421,K85CC18,Cr 85C entre Cl 18 y 17,-76.52732917,3.38041056
511422,C16K85B,Cl 16 entre Cr 85B y 85A,-76.52874250,3.38133056
511423,C16K83C,Cl 16 entre Cr 83C y 83B,-76.52856056,3.38422944
511424,C16K73,Cl 16 entre Cr 73 y 76,-76.52843889,3.38964667
511425,C16K83,Cl 16 entre Cr 83 y 83A,-76.52867278,3.38535306
511426,C16K85,Cl 16 entre Cr 85 y 85A,-76.52890389,3.38194500
511427,K86C25,Cr 86 entre Cl 25 y 28,-76.52368139,3.37912417
511428,K86C34,Cr 86 entre Cl 34 y 42,-76.52174306,3.37903250
511429,R-SUR1,Resesrva Sur 1,-76.51350694,3.35971472
511430,R-SUR2,Reserva Sur 2,-76.51291083,3.36082361
511431,R-SUR3,Reserva Sur 3,-76.51172444,3.36024917
512001,A1NC10,Av 1N entre Cl 12 y 10,-76.53427833,3.45501167
512002,C18ICESI,Cl 18 entre Kr 125 y 122,-76.53101833,3.34078139
512003,C70A3CN2,Cl 70 entre Av 3BN y 3CN,-76.51450833,3.49204333
512004,C70A3CN1,Cl 70 entre Av 3CN y 3BN,-76.51483500,3.49193500
512005,A6ANC35,Av 6AN entre Cl 35 y 29,-76.52785333,3.47302500
512006,A6NC34,Av 6N entre Cl 34 y 35,-76.52657472,3.47238611
512007,A6ANC27,Av 6AN entre Cl 27 y 26,-76.53019667,3.46949833
512008,A6NC21,Av 6N entre Cl 21 y 22,-76.53016000,3.46353000
512009,A3NC47A,Av 3N entre Cl 47A y 47,-76.51617417,3.48025500
512014,A3NC45,Av 3N entre Cl 45 y 44,-76.51716667,3.47866500
512015,C44A3DN,Cl 44 entre Av 3DN y 3EN,-76.51929333,3.47950667
512016,C44A3EN,Cl 44 entre Av 3EN y 3DN,-76.51953278,3.47935861
512017,C70A4N-2,Cl 70 entre Av 4N y 6N 2,-76.52129000,3.49414500
512018,C70A6N,Cl 70 entre Av 6N y 4N,-76.52154000,3.49403333
512019,C70A2N2,C70 Con Av 2N,-76.50377833,3.48846000
512020,A3NC23D,Av 3N con Cl 23D,-76.52370333,3.46625167
512021,A3NC32A,Av 3N entre Cl 32A y 33,-76.52202833,3.47027167
512022,A3NC31,Av 3N entre Cl 31 y 30,-76.52208667,3.47060167
512023,A3NC24,Av 3N entre Cl 24 y 23D,-76.52391500,3.46708333
512024,C21A4N,Cl 21 entre Av 4N y 3N,-76.52774083,3.46100083
512029,C75CNA2A,Cl 75CN entre Av 2 ABis y 2B,-76.50175833,3.49515000
512032,A2AN72BN,Av 2AN entre 72BN y 72AN,-76.50449972,3.49193500
512033,A2ANC71N,Av 2AN entre Cl 71N y 70N,-76.50638333,3.49000833
512034,A3NC59,Av 3N entre Cl 59 y 61AN,-76.51056694,3.48853444
512035,A2NC57AN,Av 2N entre Cl 57AN y 57N,-76.50581750,3.48378361
512037,A6BISC35,Av 6BIS entre Cl 35N y 36N,-76.52735250,3.47305806
512038,C44A3HN,Cl 44 entre Av 3HN y 4N,-76.52156333,3.48061333
512039,C44A4BN,Cl 44 entre Av 4BN y 6N,-76.52343333,3.48122500
512040,A6NC45,Av 6N entre Cl 45 y 47,-76.52563500,3.48406694
512041,A6NC48,Av 6N entre Cl 48 y 49,-76.52561556,3.48729028
512042,C52A5A,Cl 52N entre Av 5A y 5,-76.52312111,3.48853556
512043,C52A4A,Cl 52N entre Av 4A y 4,-76.52084694,3.48770556
512044,C52A3H,Cl 52 entre Av 3H y 3F,-76.51723278,3.48576889
512046,C25A2DN,Cl 25 entre Av 2D y 2C,-76.52240667,3.46375500
512050,C21NA3N,Cl 21N entre Av 3N y 4N,-76.52786194,3.46124889
512054,C34A3CN,Cl 34 entre Av 3CN y 4N,-76.52350972,3.47173917
512055,A2BNC34,Av 2BN entre Cl 34 y 35,-76.52601611,3.47226694
512056,A2BNC35,Av 2BN entre Cl 35 y 34,-76.52618194,3.47228583
512057,A2BNC25,Av 2BN entre Cl 25 y 24,-76.52474694,3.46798972
512061,C73A3N,Cl 73 entre Av 3N y 2CN,-76.50841000,3.49351000
512062,C73A2BN,Cl 73 entre Av 2B3 y 2B2N,-76.50521750,3.49248194
512063,A2BBSN,Av 2BSN entre Cl 73Bis y 74,-76.50352889,3.49322028
512064,C74NA2BN,Cl 74N entre Av 2BN y 2CN,-76.50392333,3.49465667
512069,C18A6N,Cl 18 entre Av 5AN y 6N,-76.53081667,3.46088667
512070,C18NA3N,Cl 18N entre Av 3N y 4N,-76.52973500,3.45908000
512072,A6NC16,Av 6N entre Cl 16 y 18,-76.53129000,3.46047500
512078,C70A2BS,Cl 70 entre Av 2BS y 2N,-76.50621333,3.48929333
512081,A3NC52,Av. 3N entre Cl 52 y 55AN,-76.51309333,3.48449944
512085,A2CNC60,Av. 2CN entre Cl 60 y 59A,-76.50712333,3.48554750
512086,A2DNC57D,Av. 2DN entre Cl 57D y 57A,-76.50815639,3.48468722
512087,A2EC55B,Av. 2E netre Cl 55B y 55A,-76.50901556,3.48405167
512089,C75A2B,Cl 75 entre Av 2B y 2A,-76.50198306,3.49386500
512090,A2NC75AN,Av 2N entre Cl 75N y 75AN,-76.50103472,3.49305778
512091,A2NC75C,Av 2N entre Cl 75CN y 75DN,-76.49986667,3.49447333
512092,A2NC75IN,Av 2N entre Cl 75IN y 75HN,-76.49971167,3.49477278
512093,A2CNC75C,Av 2CN entre Cl 75C y 75,-76.50266972,3.49598472
512100,C44A2D,Cl 44 entre Av 2D y 2E,-76.51573833,3.47686833
512101,A2NA1,Av 2N entre Av 1 y Cl 4,-76.53921250,3.45196750
512103,A4NC10,Av 4N entre Cl 10 y 12 Los Turcos,-76.53536250,3.45518333
512104,A6NC13,Av 6N entre Cl 13 y 15 Sisben,-76.53353667,3.45739000
512105,C34A2CN,Cl 34 entre Av 2CN y 2BN,-76.51984278,3.47000472
512106,A2NC34,Av 2N entre Cl 34 y 35,-76.51772139,3.46990917
512107,A2NC38,Av 2N entre Cl 38 y 38A,-76.51611028,3.47253000
512111,C23DA3,Cl 23D entre Av 3Bis y 3AN,-76.52505083,3.46605639
512112,A2FC25,Av 2F Con Cl 25 Terminal de Transportes,-76.52384000,3.46499667
512115,C34A2B,Cl 34 entre Av 2B y 2F,-76.51969389,3.47016000
512117,A6NC67,Av 6N entre Cl 67 y 49,-76.52566667,3.48804667
512120,A2CNC74,Av 2CN entre Cl 74 y 75,-76.50358278,3.49550583
512121,A2BNC75C,Av 2BN entre Cl 75C y 75,-76.50200750,3.49502556
512122,C74A2B2,Cl 74 entre Av 2B2 y 2B1,-76.50372694,3.49388333
512123,A6NC528,Av 6N entre Cl 52 y 58,-76.52401000,3.49001500
512124,C62AA2N,Cl 62A entre Av 2N y 2B,-76.50532972,3.48625944
512129,A6NC49,Av 6N entre Av 7N y Cl 49 Altos de Menga,-76.52572278,3.48807611
512130,C44A5N,Cl 44 entre Av 5N y 4N,-76.52369417,3.48103556
512131,C44A4N,Cl 44 entre Av 4N y 3G,-76.52137944,3.48010111
512132,C44A2G,Cl 44 entre Av 2G y 2E,-76.51599389,3.47686389
512133,A1NC171,Av 1N entre Cl 17 y 15,-76.53048250,3.45797278
512135,C52A2HN,Cl 52 entre Av 2HN y 2GN,-76.51104361,3.48227667
512140,A6NC52,Av 6N entre Cl 50 y 52,-76.52510000,3.48866833
512144,C55NA2F,Cl 55N entre Av 2F y 2H,-76.51008000,3.48423167
512147,A6ANC223,Av 6AN entre Cl 22 y 23,-76.53020556,3.46414889
512148,A6NC26A,Av 6N entre Cl 26A y 27,-76.52906944,3.46842972
512149,A6NC28,Av 6N entre Cl 28 y 29A,-76.52794833,3.47009167
512150,A6NC37B,Av 6N entre Cl 37B y38,-76.52652278,3.47605639
512151,A6NC44BA,Av 6N entre Cl 44B y 44A,-76.52578778,3.48319833
512152,A6ANC21,Av 6AN entre Cl 22 y 21,-76.53115417,3.46345139
512153,A2GNC57,Avenida 2GN entre Calle 57 y 57A,-76.50964444,3.48592222
512154,A6NC30-2,Av 6N entre Cl 30 y 34,-76.52696333,3.47167833
512177,A5NC23,Av 5N entre Cl 23 y 22,-76.52794861,3.46290722
512178,C21A5AN,Cl 21 entre Av 5AN y 5N,-76.52937667,3.46228167
512179,A3NC17,Av 3N con Cl 17,-76.52962639,3.45777278
512181,A2NC62AN,Av 2N entre Cl 62AN y 62N,-76.50480056,3.48522833
512182,C55A2B,Cl 55 entre Av 2B y 2E,-76.50845778,3.48321444
512183,A2NC24,Av 2N entre Cl 24 y 23A,-76.52438667,3.46240833
512184,A2GNC58,Avenida 2GN entre Calle 58 y 59 Unid Rec,-76.50883889,3.48668472
512185,C61A2GN,Calle 61 entre Avenida 2GN y 2BN Unid Re,-76.50932250,3.48745167
512186,A3NC61A,Avenida 3N entre Calle 61A y 70,-76.51040083,3.48901250
513001,K1C62,Kr 1 entre Cl 62 y 62A,-76.49804833,3.48145000
513003,A1NC71,Av 1N entre Cl 7 y 6,-76.53710333,3.45182667
513004,K1C70AB,Kr 1 entre Cl 70A y 70A Bis,-76.49326722,3.48934556
513005,K1C71A,Kr 1 entre Cl 71 y 71A,-76.49137778,3.49082333
513006,C73K1A3,Cl 73 entre Kr 1A3 y 1A4,-76.48772306,3.48916528
513007,C73K1A4,Cl 73 entre Kr 1A45 y 1A5,-76.48695139,3.48693194
513008,C73K1A8,Cl 73 entre Kr 1A7 y 1A8,-76.48609917,3.48362222
513009,C73K1A13,Cl 73 entre Kr 1A12 y 1A13,-76.48548083,3.48121556
513013,C70K1C1,Cl 70 entre Kr 1C1 y 1C,-76.48782500,3.47767833
513014,C70K1C2,Cl 70 entre Kr 1C1 y 1D,-76.48846278,3.47690778
513015,A6NC381,Av 6N entre Cl 38 y 36,-76.52664333,3.47670833
513016,A6NC372,Av 6N entre Cl 37A y 37BN,-76.52652500,3.47591833
513017,K1DC70,Kr 1D entre Cl 70 y 67,-76.48969500,3.47590278
513018,K1DC63,Kr 1D entre Cl 63 y 62,-76.49239917,3.47503806
513019,K1DC61A,Kr 1D entre Cl 62 y 59,-76.49490333,3.47433833
513020,K1DC58,Kr 1D entre Cl 58 y 59,-76.49689833,3.47370333
513024,K4NC72B,Kr 4N entre Cl 72 y 72Bis,-76.49666389,3.49142389
513025,K4NC72H,Kr 4N entre Cl 72G y 72H,-76.49484333,3.49421500
513026,K4NC77,Kr 4N entre Cl 76 y 77,-76.49349500,3.49663333
513027,K4NC83,Kr 4N entre Cl 82 y 83,-76.49262333,3.49815722
513029,C84K2BN,Cl 84 entre Kr 2AN y 2NBis,-76.48748000,3.49650972
513030,C84K1GN,Cl 84 entre Kr 1GN y 1HN,-76.48544194,3.49466056
513031,K1FNC80,Kr 1FN entre Cl 81 y 80,-76.48767500,3.49389472
513032,K5NC68,Kr 5N entre Cl 68 y 69,-76.50090667,3.48623056
513033,K4ANC70,Kr 4AN entre Cl 70 y 71,-76.49866889,3.48759194
513034,K4NC71G,Kr 4N entre Cl 71F y 71H,-76.49756083,3.49005833
513035,C70K1I,Cl 70 entre Kr 1I y 2,-76.48729500,3.47313333
513037,C52K1D,Cl 52 entre Kr 1D y 1C4,-76.50297139,3.47230611
513038,C52K1B1,Cl 52 entre Kr 1B1 y 1B,-76.50363611,3.47452750
513039,K1C621,Kr 1 entre Cl 62A y 62,-76.49820972,3.48173194
513040,C62K5N1,Cl 62 entre Kr 4AN y 5N,-76.50136611,3.48294500
513041,K4NC841,Kr 4N entre Cl 84 y 83,-76.49230333,3.49886333
513042,K4NC771,Kr 4N entre Cl 78 y 77,-76.49339833,3.49694833
513043,K4NC72K1,Kr 4N entre Cl 72K  y 72J,-76.49434000,3.49521667
513044,K4NC72B1,Kr 4N entre Cl 72D y 72C,-76.49537972,3.49342639
513045,K4NC721,Kr 4N entre Cl 72A y 72,-76.49697833,3.49109167
513046,K4NC71D1,Kr 4N entre Cl 71E y 71D,-76.49807833,3.48947167
513047,K4NC70,Kr 4N entre Cl 71 y 70,-76.49931250,3.48769056
513048,C70K3BN,Cl 70 entre Kr 3BN y 3CN,-76.49735333,3.48694833
513049,C70K4N2,Cl 70 entre Kr 4N y 1,-76.49718667,3.48626000
513050,K1C661,Kr 1 entre Cl 70 y 66,-76.49619333,3.48487333
513051,C71IK3C2,Cl 71I entre Kr 3C y 3B,-76.49588000,3.48970167
513052,K3NC71I1,Kr 3N entre Cl 71I y 72,-76.49378500,3.48961833
513053,K3NC72E2,Kr 3N entre Cl 72C y 72D,-76.49226500,3.49180500
513054,K3NC732,Kr 3N entre Cl 74 y 75,-76.49089333,3.49455833
513055,K3NC842,Kr 3N entre Cl 83A y 84,-76.48960000,3.49700167
513057,C62K4A2,Cl 62 entre Kr 4A y 4,-76.50041333,3.48221167
513058,K1C66N2,Kr 1 entre Cl 62A y 66,-76.49632000,3.48375000
513059,C66K1A,Cl 66 entre Kr 1A y 1A6,-76.49411028,3.48194389
513062,C70K1A12,Cl 70 entre Kr 1A12 y 1A11,-76.48889833,3.48113667
513063,C70K1A10,Cl 70 entre Kr 1A10 y 1A11,-76.48979000,3.48113500
513065,C71K1A51,Cl 71 entre Kr 1A5-1 y 1A4,-76.48925806,3.48602333
513066,C71K1A3,Cl 71 entres Kr 1A4 y 1A3,-76.49028278,3.48784944
513068,C71K1A1A,Cl 71 entre Kr 1A1A y 1A1,-76.49106667,3.48936500
513069,K1C73,Kr 1 entre Cl 73 y 73B,-76.48813806,3.49163417
513070,K1C74B,Kr 1 entre Cl 74B y 73B,-76.48683444,3.49210944
513071,K1C73B,Kr 1 entre Cl 73B y 73,-76.48917778,3.49177194
513073,K5NC58N,Kr 5N entre Cl 58N y 59N,-76.50301694,3.48175667
513074,K1C71Y72,Kr 1 entre Cl 71 y 72,-76.49119500,3.49091000
513075,K1C72,Kr 1 entre Cl 72 y 71,-76.49154667,3.49102306
513076,K1C711,Kr 1 entre Cl 71 y 70A,-76.49364167,3.48924611
513077,K3C58,Kr 3 entre Cl 58 y 59,-76.49537667,3.46729667
513078,K3C59D,Kr 3 entre Cl 59D y 60,-76.49298833,3.46804667
513079,K3C63,Kr 3 entre Cl 63 y 63B,-76.49048333,3.46884833
513080,K3C65B,Kr 3 entre Cl 65B y 69,-76.48802000,3.46961833
513081,C70K31,Cl 70 entre Kr 3 y 4C,-76.48600667,3.46914833
513082,K5C70,Kr 5 entre Cl 70 y69,-76.48641667,3.46712667
513083,K5C65A,Kr 5 entre Cl 65A y 64B,-76.48843333,3.46653667
513084,K5C62B,Kr 5 entre Cl 62B y 62,-76.49019167,3.46599333
513085,C62K4C,Cl 62 entre Kr 4C y 4B,-76.49112500,3.46750667
513089,C56K1B,Cl 56 entre Kr 1B y 1C,-76.50047667,3.47561306
513092,K2C53,Kr 2 entre Cl 53 y 52B,-76.50056500,3.46866167
513093,C52K2B2,Cl 52 entre Kr 2B2 y 2E,-76.50157333,3.46607667
513094,K3C52,Kr 3 entre Cl 52 y 53,-76.49974806,3.46584750
513095,K3C56,Kr 3 entre Cl 56 y 57,-76.49755333,3.46666000
513096,K3C60,Kr 3 entre Cl 60 y 59D,-76.49312167,3.46824500
513097,K3C59,Kr 3 entre Cl 59 y 58,-76.49558333,3.46748667
513098,K3C57,Kr 3 entre Cl 57 y 58,-76.49764667,3.46681333
513099,K3C54,Kr 3 entre Cl 54 y 53,-76.49932000,3.46623667
513100,C52K3,Cl 52 entre Kr 3 y 2,-76.50126167,3.46604833
513101,C52K2,Cl 52 entre Kr 3 y 2,-76.50164583,3.46738861
513102,C52K1E,Cl 52 entre Kr 1E y 1D2,-76.50234000,3.47000667
513103,C70K7,Cl 70 entre Kr 7 y 5,-76.48452167,3.46723167
513104,C70K5,Cl 70 entre Kr 5 y 7,-76.48526833,3.46683833
513105,C70K4,Cl 70 entre Kr 4 y 3D,-76.48518500,3.46931833
513106,C70K3,Cl 70 entre Kr 3 y 4C,-76.48598500,3.46907833
513107,C70K2-1,Cl 70 entre Kr 2 y 1J,-76.48645167,3.47335667
513110,C70K1A14,Cl 70 entre Kr 1A14 y 1B,-76.48910167,3.47897833
513111,C70K1A51,Cl 70 entre Kr 1A6 y A5,-76.49050167,3.48438167
513112,C70K1A6,Cl 70 entre Kr 1 y 1A6,-76.49101333,3.48390667
513113,C70K1,Cl 70 con Kr 1,-76.49496000,3.48625000
513114,C70K11,Cl 70 con Kr 1 1,-76.49535000,3.48577889
513118,K5C28,Kr 5 entre Cl 28 y 29,-76.51757500,3.45758500
513119,K5C32,Kr 5 entre Cl 32 y 33,-76.51430500,3.45848500
513120,K5C35,Kr 5 entre Cl 35 y 34,-76.51305667,3.45899000
513121,K5C34,Kr 5 entre Cl 34 y 35,-76.51286167,3.45896000
513122,K5C38,Kr 5 entre Cl 38 y 36A,-76.51086500,3.45972500
513123,K5C37,Kr 5 entre Cl 37 y 38,-76.51056000,3.45968000
513124,K5C44,Kr 5 entre Cl 44 y 43,-76.50768000,3.46075333
513127,K5C46,Kr 5 entre Cl 46 y 47,-76.50351778,3.46183333
513128,C52K5,Cl 52 entre Kr 5 y 4C,-76.50062722,3.46328250
513129,K2C52,Kr 2 entre Cl 52 y 56,-76.50060500,3.46848000
513130,K2C571,Kr 2 entre Cl 57 y 56,-76.49829167,3.46936333
513131,K2C572,Kr 2 entre Cl 57 y 58,-76.49764833,3.46934667
513132,K2C60,Kr 2 entre Cl 60 y 59B,-76.49521167,3.47035333
513133,K2C592,Kr 2 entre Cl 59A y 60,-76.49534500,3.47009000
513134,K2C621,Kr 2 entre Cl 62 y 60,-76.49318167,3.47096000
513135,K2C61A2,Kr 2 entre Cl 61A y 62,-76.49293667,3.47086333
513136,K2C641,Kr 2 entre Cl 64 y 62,-76.49108500,3.47155000
513137,K2C64,Kr 2 entre Cl 62 y 65,-76.49057833,3.47160167
513138,K2C671,Kr 2 entre Cl 67 y 66,-76.48938667,3.47209500
513139,K2C65,Kr 2 entre Cl 65 y 67,-76.48882167,3.47212500
513140,C70K2-2,Cl 70 entre Kr 2 y 2A,-76.48701694,3.47225139
513141,C73K7,Cl 73 entre Kr 7 y 2F,-76.48021444,3.46896917
513142,C73K4,Cl 73 entre Kr 4 y 3,-76.48120722,3.47123694
513143,C73K1I,Cl 73 entre Kr 1I y 1J,-76.48277000,3.47443167
513144,C73K1G,Cl 73 entre Kr 1G y 1F,-76.48342500,3.47656167
513147,C52K3Y4B,Cl 52 entre Kr 3 y 4B,-76.50127444,3.46471000
513148,K5C52,Kr 5 entre Cl 52 y 47,-76.50204000,3.46244667
513149,C34K6A,Cl 34 entre Kr 6A y 7,-76.51288000,3.45719667
513150,C73K1D,Cl 73 entre Kr 1D y 1C1,-76.48405500,3.47839500
513151,C73K1A14,Cl 73 entre Kr 1A14 y 1A13,-76.48498833,3.48137667
513152,C73K1A82,Cl 73 entre Kr 1A8 y 1A7,-76.48584667,3.48392333
513153,C73K1A4E,Cl 73 entre Kr 1A4E y 1A4D,-76.48686500,3.48723833
513157,K1C70A1,Kr 1 entre Cl 70A y 71,-76.49277361,3.48974917
513158,C73K1B21,Cl 73 entre Kr 1B2 y 1B3,-76.48484000,3.47946000
513159,C73K1E,Cl 73 entre Kr 1E y 1F,-76.48401000,3.47671833
513160,C73K2A,Cl 73 entre Kr 2A y 2B,-76.48295167,3.47345333
513161,C73AK3,Cl 73A entre Kr 3 y 4,-76.48195667,3.47154833
513162,C73AK5,Cl 73A con Kr 5,-76.48056667,3.46884833
513163,C73K1A2C,Cl 73 entre Kr 1A2C y 1A2B,-76.48757833,3.48950667
513164,C62K1BIS,Cl 62 entre Kr 1Bis y 1A,-76.49731583,3.47985806
513166,C62AK1B4,Cl 62A entre Kr 1B4 y 1B5,-76.49343806,3.47649111
513167,C62AK1A8,Cl 62A entre Kr 1A8 y 1A7,-76.49284972,3.47911139
513168,C66K1A15,Cl 66 con Kr 1A15,-76.49141944,3.47944861
513172,K5NC67N,Kr 5N entre Cl 67 y 65,-76.50133861,3.48527861
513173,K5NC61N,Kr 5n entre Cl 60N y 61N,-76.50252056,3.48260611
513174,K5NC57N,Kr 5N entre Cl 56N Y 57N,-76.50377528,3.48119139
513175,K5NC55N,Kr 5N con Cl 55 y 52,-76.50508639,3.47972611
513176,K5NC51AN,Kr 5N con Cl 52 y 51,-76.50694806,3.47759111
513177,K5NC47N,Kr 5N entre Cl 47N y 48N,-76.50890667,3.47529667
513178,K5NC46N,Kr 5N con Cl 46 y 45A,-76.51031667,3.47370694
513182,K1C47Y50,Kr 1 entre Cl 47N y 50N,-76.50655250,3.47363528
513183,C62K1B,Cl 62 entre Kr 1B y 1C,-76.49462417,3.47728722
513185,K1C56,Kr 1 entre Cl 56 y 57 Comfandi IPS,-76.50112750,3.47882167
513186,C56K1C,Cl 56 entre Kr 1D y 1C,-76.49962833,3.47347722
513187,C56K1C1,Cl 56 entre Kr 1C y 1B,-76.50021750,3.47565806
513188,K5C55,Kr 5 entre Cl55 y 54,-76.49814806,3.46355389
513189,K5C59,Kr 5 entre Cl 59 y 58,-76.49504833,3.46448861
513190,K5C62,Kr 5 entre Cl 62 y 60,-76.49244833,3.46526167
513191,C52K7N,Cl 52 entre Kr 7N y 9N,-76.50741444,3.47956889
513192,C52K1-1D,Cl 52 entre Kr 1 y 1D,-76.50382528,3.47448528
513193,C52K1D3,Cl 52 entre Kr 1 y 1D Centro Comercial C,-76.50306417,3.47183472
513194,C52K1D2,Cl 52 entre Kr 1D1 y 1D2,-76.50259556,3.46980750
513195,K2C49,Kr 2 entre Cl 49 y 47,-76.50391139,3.46759222
513196,C47K1D,Cl 47 entre Kr 1D Bis y 1D,-76.50502250,3.47072028
513197,K1DC56-1,Kr 1D entre Cl 56 y 58,-76.49888389,3.47276417
513198,K1DC59,Kr 1D entre Cl 59 y 59B,-76.49680639,3.47338167
513199,K1DC60A,Kr 1D entre Cl 60A y 60A1,-76.49495583,3.47396389
513200,C62K1D,Cl 62 entre Kr 1D y 1D Bis,-76.49329639,3.47391389
513201,C62K1G,Cl 62 entre Kr 1G y 1G1,-76.49289250,3.47258056
513202,C62K2B1,Cl 62 entre Kr 2 y 2B1,-76.49201472,3.46958056
513203,C70K1CAI,Cl 70 entre Kr 1 y 1A5 CAI,-76.49380667,3.48511833
513204,K1C38,Kr 1 entre Cl 38 y 35,-76.51424028,3.46530611
513205,C34K2AN,Cl 34 entre Kr 2AN y 5N,-76.51648000,3.46644528
513206,K5C38A,Kr 5N entre Cl 38A y 39,-76.51561194,3.46860611
513207,K5C42A,Kr 5N entre Cl 42 y 42A,-76.51303056,3.47088500
513208,K5C45A,Kr 5N entre Cl 45 y 45A,-76.51092944,3.47282472
513210,K5C51A,Kr 5N entre Cl 51A y 51B,-76.50680361,3.47754139
513211,K5NC63,Kr 5N entre Cl 63N y 65N,-76.50153583,3.48431472
513212,C62K1C,Cl 62 entre Kr 1D y 1C,-76.49358000,3.47566583
513214,C62K1A5A,Cl 62 entre Kr 1A5A y 1 Bis,-76.49679361,3.47962694
513215,K2C70,Kr 2 entre Cl 70 y 69,-76.48753722,3.47255917
513216,C44K6N,Cl 44 entre Kr 6N y 5N,-76.51226167,3.47253000
513218,C44K1D,Cl 44 entre Kr 1D1 y 1D,-76.50930111,3.46901639
513219,C44K1D1,Cl 44 entre Kr 1D1 y 1H,-76.50924333,3.46815722
513220,C44K2,Cl 44 entre Kr 2 y 2B,-76.50844528,3.46503750
513222,C44K6A,Cl 44 entre Kr 7 y 6A,-76.50685333,3.45941639
513224,C44K1E,Cl 44 entre Kr 2 y 1E,-76.50850472,3.46609028
513231,C70K1B,Cl 70 entre Kr 1B y 1B1,-76.48915167,3.47911972
513232,C44K4B1,Cl 44 entre Kr 4B y 4,-76.50751417,3.46220167
513233,C44K6B1,Cl 44 entre Kr 6B y 6C,-76.50701000,3.45923556
513234,C44K4A1,Cl 44 entre Kr 4 y 4A,-76.50772306,3.46224500
513235,C44K2N,Cl 44 entre Kr 2N y 3AN,-76.51066278,3.47096472
513236,C44K7N,Cl 44 entre Kr 6N y 7N,-76.51247722,3.47306472
513237,C73AK1A,Cl 73A entre Kr 1A y 1A1,-76.48607528,3.49121444
513238,C76K1A4A,Cl 76 entre Kr 1A4A Y 1A4A BIS,-76.48512917,3.48880194
513239,C76K1A5A,Cl 76 entre Kr 1A5A BIS y 1A5B,-76.48451194,3.48661028
513240,C76K1A7,Cl 76 entre Kr 1A7 y 1A7 BIS,-76.48368694,3.48445472
513241,K1A12C76,Kr 1A12 entre Cl 76 y 73A,-76.48363500,3.48270861
513242,C73AK1A8,Cl 73A entre Kr 1A8 y 1A7 BIS,-76.48453861,3.48388972
513243,C73AK1A5,Cl 73A entre Kr 1A5D y 1A5C BIS,-76.48509000,3.48612583
513244,C73AK1A4,Cl 73A entre Kr 1A4B1 y 1A4B,-76.48561333,3.48826833
513245,C73AK1A1,Cl 73A entre Kr 1A1 y 1A,-76.48597472,3.49123417
513247,C52A2AN8,Cl 52 entre Av 2AN y Kr 8N,-76.50813083,3.48000639
513248,C52K5N,Cl 52 entre Kr 5N y 4N,-76.50593361,3.47785639
513251,C70K4CN,Cl 70 entre Kr 4CN y 5N,-76.50024833,3.48777833
513252,C70K6N,Cl 70 entre Kr 6N y 5N,-76.50119000,3.48723333
513253,C70A2N1,Cl 70 entre Av 2N y 2Bis,-76.50679500,3.48986333
513254,C70A2BS1,Cl 70 entre Av 2Bis y 2N,-76.50617667,3.48924167
513255,C70A2BIS,Cl 70 entre Av 2Bis y 3N,-76.50878500,3.49023333
513257,C70A3BN2,Cl 70 entre Av 3N y 3BN,-76.51144500,3.49104500
513258,C70A3BN1,Cl 70 entre Av 3BN y 3N,-76.51156333,3.49075333
513259,C70A3DN,Cl 70 entre Av 3CN y 4N,-76.51641833,3.49261333
513260,C70A4N2,Cl 70 entre Av 4N y 3CN,-76.51663667,3.49250333
513261,C70A4N1,Cl 70 entre Av 4N y 6N,-76.51945667,3.49356500
513262,C70A6N-2,Cl 70 entre Av 6N y 4N 2,-76.51948833,3.49338333
513263,A6NA70N,Av 6N entre Cl 67 y Av 70N,-76.52368833,3.49251000
513264,A6NC652,Av 6N entre Cl 52 y 67,-76.52346667,3.49241333
513265,A6NC501,Av 6N entre Cl 49 y 48,-76.52586278,3.48751167
513266,A6NC502,Av 6N entre Cl 49 y 50N,-76.52552667,3.48664833
513267,A6NC471,Av 6N entre Cl 47 y 44B,-76.52589000,3.48375167
513268,A6NC472,Av 6N entre Cl 45 y 47N,-76.52558667,3.48366000
513269,A6NC411,Av 6N entre Cl 41 y 40,-76.52544667,3.47989833
513270,A6NC40-2,Av 6N entre Cl 40 Y 42,-76.52518667,3.47971833
513271,A6ANC29,Av 6AN entre Cl 35 y 29,-76.52865667,3.47188000
513272,A6ANC25,Av 6AN entre Cl 25 y 24A,-76.53100833,3.46732000
513273,A6ANC22,Av 6AN entre Cl 22A y 22,-76.53102667,3.46420167
513279,A6NC23,Av 6N entre Cl 23 y 24N,-76.53024167,3.46536500
513280,A6NC252,Av 6N entre Cl 25 y 26N,-76.52938167,3.46762000
513282,K1FNC73,Kr 1FN con Cl 77 y 73,-76.48955750,3.49359000
513289,C52K4N,Cl 52 entre Kr 4N y 5N,-76.50546806,3.47773694
513290,C70K4C,Cl 70 entre Kr 3 y 4C,-76.48628000,3.46979111
513291,K5C44B,Kr 5 entre Cl 44 y 44B,-76.50679500,3.46084556
513292,K5C45C,Kr 5 entre Cl 45C y 45,-76.50512889,3.46145250
513293,K2ANC81,Kr 2AN entre Cl 73 y 81,-76.48837639,3.49522611
513294,C84K2AN,Cl 84 entre Kr 2NBis y 2AN,-76.48786417,3.49674444
513295,K3NC83B,Kr 3N entre Cl 83B y 83A,-76.48962722,3.49704778
513296,K3NC76,Kr 3N entre Cl 76 y 75,-76.49079194,3.49480722
513297,K3NC72F,Kr 3N entre Cl 72F y 72E,-76.49220556,3.49199806
513298,K3NC72A,Kr 3N entre Cl 72A y 72,-76.49365500,3.48985667
513299,C71IK3B,Cl 71I entre Kr 3B y 3EN,-76.49579778,3.48966417
513300,C70K3D,Cl 70 entre Kr 3D y 3C,-76.48532528,3.46946250
513301,C62K1A9,Cl 62 entre Kr 1A9 y 1A10,-76.49575000,3.47851611
513302,K5C46A,Kr 5N entre Cl 46A y 46B,-76.50982194,3.47409861
513304,K55C52,Kr 5N entre Cl 52 y 55,-76.50538389,3.47924500
513305,K5NC43A,Kr 5N entre Cl 43A y 43,-76.51238000,3.47161056
513306,K5NC39,Kr 5N entre Cl 39 y 38A,-76.51547611,3.46889861
513307,K1A6C71,Kr 1A6 entre 71 y 70B,-76.48828333,3.48379333
513308,C66K1A6,Cl 66 entre Kr 1A6 y 1A10,-76.49278833,3.48071361
513309,C70K1G,Cl 70 entre Kr 1G,-76.48775333,3.47466750
513310,C62K1HB,Cl 62 entre Kr 1HBis y 1H,-76.49266444,3.47265083
513311,C66K1A10,Cl 66 entre Kr 1A10 y 1A6,-76.49282806,3.48084167
513312,K1A6C62A,Kr 1A6 entre Cl 62A y 62,-76.49470472,3.48029528
514001,C16K1001,Cl 16 entre Kr 100 y 98,-76.52943750,3.37011111
514002,C70K11C,Cl 70 entre Kr 11C y 11B,-76.48864917,3.44737028
514003,C70K11E,Cl 70 entre Kr 11A y 11E,-76.49006500,3.44680333
514009,C70K7LB,Cl 70 entre Kr 7LBis y 7L,-76.48333028,3.45752444
514010,C70K7L,Cl 70 entre Kr 7L y 7LBis,-76.48417167,3.45766667
514011,C70K7G,Cl 70 entre Kr 7G y 7EBis,-76.48267917,3.46048361
514012,C70K7EB,Cl 70 entre Kr 7EBis y 7J,-76.48346000,3.46060833
514013,C70K7C,Cl 70 entre Kr 7C y 7BBis,-76.48342667,3.46375333
514014,C70K7BB,Cl 70 entre Kr 7BBis y 7C,-76.48419500,3.46340000
514016,C71AD15,Cl 71A entre Dg 15 y 14,-76.48804472,3.44528889
514017,K15C73,Kr 15 entre Cl 73 y 74,-76.48295250,3.44627806
514019,C44K12,Cl 44 entre Kr 12 y 11D,-76.50412833,3.44909972
514020,K25C73A,Kr 25 entre Cl 73A y 74,-76.47981167,3.44084333
514021,K25C77,Kr 25 entre Cl 77 y 78,-76.47706667,3.43894667
514022,K25C79,Kr 25 entre Cl 79 y 80,-76.47506500,3.43762833
514023,C80K25,Cl 80 entre Kr 25 y 23,-76.47348667,3.43776000
514024,K23C81B,Kr 23 entre Cl 81B y 82,-76.47173500,3.43749500
514025,K23C83B,Kr 23 entre Cl 83B y 84,-76.46989500,3.43666500
514026,K23C85A,Kr 23 entre Cl 85A y 85,-76.46804833,3.43583333
514027,K23C96,Kr 23 con Cl 96,-76.46666972,3.43507639
514028,K23C102B,Kr 23 entre Cl 102 y 102C,-76.46482139,3.43165444
514029,K23C118,Kr 23 entre Cl 118 y 119,-76.46365667,3.42867667
514030,C123K23,Cl 123 entre Kr 23 y 23A,-76.46346000,3.42564333
514031,C123K26A,Cl 123 entre Kr 26ABis y 26CBis,-76.46405000,3.42222333
514032,C123K26H,Cl 123 entre Kr 26H2 y 26H3,-76.46568167,3.41910167
514033,C123K26J,Cl 123 entre Kr 26J1 y 26J2,-76.46687389,3.41681028
514034,C123K26R,Cl 123 entre Kr 26R1 y 26T,-76.46830333,3.41420667
514035,C123K27C,Cl 123 entre Kr 27C y 27D,-76.46967167,3.41193944
514036,C123K28B,Cl 123 entre Kr 28B y 28B1,-76.46997500,3.40947333
514039,C121K27F,Cl 121 entre Kr 27F y 27D1,-76.47155167,3.41253333
514041,C123K26M,Cl 123 entre Kr 26M3 y 26M1,-76.46778500,3.41507333
514042,C123K262,Cl 123 entre Kr 26J2 y 26J,-76.46657167,3.41712500
514044,C123K26B,Cl 123 entre Kr 26B y 26ABis,-76.46366833,3.42289500
514045,K23C120Q,Kr 23 entre Cl 120Q y 120R,-76.46335667,3.42569333
514046,K23C120C,Kr 23 entre Cl 120C y 120B,-76.46325833,3.42784833
514047,K23C114,Kr 23 entre Cl 114 y 112,-76.46386806,3.42948694
514048,K23C1022,Kr 23 entre Cl 102B y 102,-76.46486667,3.43209500
514049,K23C98A,Kr 23 entre Cl 98A y 98,-76.46597667,3.43483000
514050,K23C87,Kr 23 entre Cl 87 y 86,-76.46822000,3.43593333
514051,K23C84,Kr 23 entre Cl 84 y 83B,-76.46969000,3.43662000
514052,K23C83,Kr 23 entre Cl 83 y 81B,-76.47178667,3.43765167
514053,C80K23,Cl 80 entre Kr 23 y 25,-76.47350833,3.43790333
514054,K25C80,Kr 25 entre Cl 80 y 79,-76.47505694,3.43782861
514055,K25C771,Kr 25 entre Cl 77 y 78,-76.47711667,3.43913000
514056,K25C74,Kr 25 entre Cl 74 y 75,-76.47908833,3.44060333
514058,K15C74,Kr 15 entre Cl 74 y 73,-76.48322333,3.44645833
514063,D13C72A,Dg 13 entre Cl 72A y 72B,-76.48567333,3.44686333
514064,K11C72C,Kr 11 entre Cl 72C y 73,-76.48425500,3.44787833
514065,D26FC73,Dg 26F1 entre Tr 73A y Cl 73,-76.48315583,3.43607722
514067,T103C56B,Tr 103 entre Cl 74 y Kr 26B2,-76.48068944,3.43800583
514068,T103C76,Tr 103 entre Cl 76 y 77,-76.47991083,3.43579639
514069,T103C79,Tr 103 entre Cl 79 y 79A,-76.47878889,3.43242333
514070,T103D26I,Tr 103 entre Dg 26I y 26I1,-76.47753167,3.42898167
514071,T103D26P,Tr 103 entre Dg 26P3 y 26P4,-76.47764667,3.42476667
514072,T103D261,Tr 103 entre Dg 26P8 y 26P9,-76.47796694,3.42285083
514073,T103D263,Tr 103 entre Dg 26P14 y 26P15,-76.47836472,3.42066556
514074,C102K27C,Tr 103 entre Kr 27C y 27D,-76.47907389,3.41674778
514075,K28C101,Kr 28 entre Cl 101 y 100,-76.48020778,3.41554278
514078,K28C88,Kr 28 entre Cl 88 y 83,-76.48392722,3.41902556
514079,K28C79,Kr 28 entre Cl 79 y 73,-76.48607028,3.42108194
514080,C73K8,Cl 73 con Kr 8,-76.48273139,3.45140333
514081,K27C76,Kr 27 entre Cl 76 y 77,-76.48413889,3.42315917
514082,C73K7R,Cl 73 entre Kr 7RBis y 7S,-76.48216167,3.45412167
514083,K27C84,Kr 27 entre Cl 84 y 85,-76.48205722,3.42116944
514084,K27C86,Kr 27 entre Cl 86 y 91,-76.48067972,3.41987389
514085,T103D262,Tr 103 entre Dg 26P17 y 26P16,-76.47831361,3.42000778
514086,T103D264,Tr 103 entre Dg 26P9 y 26P10,-76.47776750,3.42287833
514087,T103C94,Tr 103 entre Cl 95 y 92,-76.47707750,3.42648500
514088,T103C84,Tr 103 entre Cl 84 y 80F,-76.47750333,3.42956694
514089,T103C80A,Tr 103 entre Cl 80A y 80,-76.47835083,3.43187833
514090,T103C78B,Tr 103 entre Cl 79 y 78,-76.47873083,3.43305861
514091,T103C772,Tr 103 entre Cl 77 y 76,-76.47974639,3.43586028
514092,T103C74,Tr 103 entre Cl 75 y 74,-76.48063806,3.43837639
514095,C73K7M,Cl 73 entre Kr 7M y 7LBis,-76.48163667,3.45633000
514096,C73K7JB,Cl 73 entre Kr 7JBis y 7J,-76.48120833,3.45832500
514097,C73K7B,Cl 73 entre Kr 7B y 7BBis,-76.47997972,3.46509639
514098,C73K7G,Cl 73 entre Kr 7G y 7FBis,-76.48060667,3.46053500
514099,C73K7D,Cl 73 entre Kr 7D y 7C,-76.48004528,3.46311861
514100,C84K7C,Cl 84 entre Kr 7C y 7BBis,-76.47759361,3.46536222
514104,K7CC86,Kr 7C entre Cl 86 y 84,-76.47708694,3.46532361
514106,C81K7E,Cl 81 entre Kr 7E y 7EBis,-76.47902417,3.46158028
514110,K7CC70,Kr 7C entre Cl 70 y 72A,-76.48293167,3.46336000
514112,K7CC72A,Kr 7C entre Cl 72A y 73,-76.48060500,3.46414833
514113,C73K7C,Cl 73 entre Kr 7C y 7ABis,-76.47948333,3.46561667
514114,C34K7,Cl 34 entre Kr 7 y 8,-76.51222333,3.45514833
514115,K8C34,Kr 8 entre Cl 34 y 26,-76.51542306,3.45367917
514116,K8C27,Kr 8 entre Cl 27 y 26,-76.51712278,3.45332861
514119,K8C391,Kr 8 entre Cl 44 y 36,-76.50722000,3.45373667
514120,K8C392,Kr 8 entre Cl 39 y 41,-76.50712167,3.45346667
514121,K8C44,Kr 8 con Cl 44,-76.50331306,3.45318167
514125,K8C51,Kr 8 con Cl 51,-76.49959222,3.45283722
514126,K8C492,Kr 8 entre Cl 49 y 50,-76.50041333,3.45265833
514128,K8C522,Kr 8 entre Cl 52 y 53,-76.49777944,3.45248111
514129,K8C561,Kr 8 con Cl 56,-76.49561167,3.45260833
514130,K8C562,Kr 8 entre Cl 54 y 56,-76.49586500,3.45238667
514131,K8C59,Kr 8 con Cl 59,-76.49252333,3.45278833
514132,K8C582,Kr 8 entre Cl 58 y 59,-76.49316667,3.45253167
514133,K8C62,Kr 8 entre Cl 62 y 61,-76.48974500,3.45272917
514134,K8C592,Kr 8 entre Cl 59 y 70,-76.49023167,3.45250833
514137,C70K26,Cl 70 entre Kr 26 y 25B,-76.49304306,3.43871444
514138,C70K24A,Cl 70 entre Kr 24B y 24A,-76.49174083,3.44132667
514147,K25C114,Kr 25 entre Cl 114 y 113,-76.46589500,3.42798333
514150,C70K7RBI,Cl 70 entre Kr 7Rbis y 7Mbis,-76.48452833,3.45522167
514152,C73K7F,Cl 73 entre Kr 7F y 7G,-76.48093167,3.46074667
514153,C73K7LB,Cl 73 con Kr 7LBis,-76.48186833,3.45705000
514154,C73K7RB,Cl 73 entre Kr 7RBis y 7SBis,-76.48254667,3.45410333
514155,C73K81,Cl 73 con Kr 8,-76.48310000,3.45150000
514156,C73K11,Cl 73 entre Kr 11 y Dg 14,-76.48413306,3.44727361
514157,C73K112,Cl 73 entre Kr 11 y 10,-76.48325167,3.44819250
514161,C95K26I7,Cl 95 entre Kr 26I7 y 26I6,-76.47634278,3.42591139
514162,C95K26H,Cl 95 entre Kr 26H y 26G4,-76.47460917,3.42623889
514163,C97K26F1,Cl 97 entre Kr 26F1 y 26F,-76.47245806,3.42639028
514171,K27C1201,Kr 27 entre Cl 120 y 116,-76.47260806,3.41459028
514172,K27C114,Kr 27 entre Cl 114 y 113,-76.47417528,3.41540083
514173,C112K26Q,Cl 112 entre Kr 27 y 26Q,-76.47383278,3.41722333
514174,C11226J5,Cl 112 entre Kr 26J5 y 26J,-76.47188389,3.42057750
514176,C112K26E,Cl 112 entre Kr 26F y 26E,-76.46969250,3.42442389
514177,K26CC99,Kr 26C entre Cl 99 y 98,-76.47075778,3.42702944
514178,K26GC97,Kr 26G entre Cl 97 y 94A,-76.47313333,3.42646833
514179,C94K26H,Cl 94 entre Kr 26H y 26I,-76.47498583,3.42602944
514186,K27T1031,Kr 27 entre Tr 103 y Cl 104,-76.47822861,3.41751611
514189,K27C122,Kr 27 entre Cl 122 y 121,-76.46999167,3.41313333
514190,K27C1061,Kr 27 entre Cl 106 y Tr 103,-76.47788167,3.41753056
514192,K27C91,Kr 27 entre Cl 91 y 88,-76.48107861,3.42041889
514193,K27C81,Kr 27 entre Cl 81 y 80,-76.48285000,3.42230667
514194,K25C80B,Kr 25 entre Cl 80B y 80C,-76.47350500,3.43584667
514195,K25C84,Kr 25 entre Cl 84 y 85,-76.47231667,3.43406333
514196,K25C891,Kr 25 entre Cl 89 y 94,-76.46929167,3.43128000
514197,K25C94,Kr 25 entre Cl 94 y 112,-76.46717500,3.42938833
514198,K25C112,Kr 25 entre Cl 112 y 113,-76.46609000,3.42798000
514199,C121K25,Cl 121 entre Kr 25 y 25B,-76.46538333,3.42572500
514200,C121K26F,Cl 121 entre Kr 26F y 26F Bis,-76.46678167,3.42150167
514201,C121K26K,Cl 121 entre Kr 26K y 26K1,-76.46865500,3.41784833
514202,C121K26R,Cl 121 entre Kr 26R y 26R1,-76.47044333,3.41474667
514204,C121K28D,Cl 121 entre Kr 28D y C121D,-76.47386000,3.40877167
514205,C121C122,Cl 121 entre Cl 122A2 y 122A3,-76.47501833,3.40674500
514206,C121122A,Cl 121 entre Cl 122A3 y 122A2,-76.47482333,3.40686333
514207,C121C121,Cl 121 entre Cl 121D y Kr 28D,-76.47373833,3.40880000
514208,C121K26P,Cl 121 con Kr 26P,-76.47036667,3.41463667
514209,C121K26J,Cl 121 entre Kr 26J2 y 26J3,-76.46867333,3.41762167
514210,C121K26E,Cl 121 entre Kr 26E y 26F,-76.46605000,3.42234500
514211,C121K25B,Cl 121 entre Kr 25A y 25B,-76.46526833,3.42524000
514212,K25C104,Kr 25 entre Cl 104 y 105,-76.46729167,3.42982667
514213,K25C892,Kr 25 entre Cl 89 y 94,-76.46990667,3.43184667
514214,K25C85,Kr 25 entre Cl 85 y 86,-76.47154167,3.43356000
514215,K25C80A,Kr 25 entre Cl 80A y 80B,-76.47376167,3.43636667
514218,C73K7CBI,Cl 73 entre Kr 7C Bis y 7D,-76.48036722,3.46337722
514219,T103K26A,Tr 103 entre Kr 26A2 y 26A3,-76.48116917,3.43948194
514220,T103C73C,Tr 103 entre Cl 73C,-76.48112056,3.43968000
514225,C81K7HBS,Cl 81 entre K7HBis y 7GBis,-76.47869944,3.45942667
514228,C84K7A,Cl 84 entre Kr 7ABIS y 7A,-76.47799361,3.46659694
514229,C86K7AB,Cl 86 entre Kr 7A y 7ABIS,-76.47675139,3.46697361
514232,C121K27J,Cl 121 entre Kr 27I y 27J,-76.47231000,3.41153333
514235,C123K28A,Cl 123 entre Kr 28B y 28A,-76.46990389,3.40965528
514236,C123K26S,Cl 123 entre Kr 26T y 26S,-76.46892333,3.41295750
514238,C81K7D,Cl 81 entre Kr 7D y 7C Bis,-76.47931444,3.46372000
514241,C67K7E,Cl 67 entre Kr 7EBis y 7F,-76.48642500,3.45962833
514243,C63K7F,Cl 63 entre Kr 7F y 7F Bis,-76.48841667,3.45776639
514245,C61K7VBS,Cl 61 entre Kr 7V Bis y 8,-76.49006889,3.45300889
514246,C123K28D,Cl 123 Kr 28D y 28D1,-76.47033056,3.40711806
514248,K28FC122,Kr 28F entre Cl 122K y 122 F Bis,-76.47383361,3.40358417
514251,K28C94,Kr 28 entre Cl 94 y 93,-76.48176278,3.41697361
514252,K28C76,Kr 28 entre Cl 76 y 79,-76.48553028,3.42047472
514253,K28C86,Kr 28 entre Cl 86 y 87,-76.48353611,3.41857944
514254,K28C91,Kr 28 entre Cl 91 y 92,-76.48238139,3.41748667
514255,K28C99,Kr 28 entre Cl 99 y 101,-76.48017556,3.41539389
514257,K12C59,Kr 12 entre Cl 59 y 58A,-76.49429833,3.44777417
514258,K10C27,Kr 10 entre Cl 27 y 28,-76.51684972,3.45048694
514259,K10C32,Kr 10 entre Cl 32 y 33,-76.51269139,3.45124806
514260,K10C34,Kr 10 entre Cl 34 y 35,-76.51027944,3.45133861
514261,K10C38,Kr 10 entre Cl 38 y 39,-76.50785417,3.45140917
514262,C44K8A1,Cl 44 entre Kr 8A y 9,-76.50505750,3.45191444
514263,K12C58,Kr 12 entre Cl 58 y 59,-76.49432028,3.44766444
514269,C12328D7,Cl 123 entre Kr 28D7 y 28D5,-76.47124167,3.40531278
514270,C12328D3,Cl 123 entre Kr 28D3 y 28D,-76.47021056,3.40704750
514271,C123K27B,Cl 123 entre Kr 27B y 27,-76.46946500,3.41196306
514273,K27C116,Kr 27 entre Cl 116 y 120,-76.47329000,3.41470194
514274,K27C1221,Kr 27 con Cl 122,-76.47020750,3.41296500
514276,C112K26L,Cl 112 entre Kr 26L y 26K1,-76.47285806,3.41894806
514277,C11226H3,Cl 112 entre Kr 26H3 y 26H2,-76.47068083,3.42262667
514278,C79K28D,Cl 79 entre Kr 28C y 28D,-76.48648528,3.42007500
514285,C44K12B,Cl 44 entre Kr 12B y 12C,-76.50379528,3.44709722
514287,D71K22,Dg 71 entre Kr 22 y 22C,-76.48530861,3.44024500
514290,D70K25B,Dg 70 entre Kr 25Bis y 25A1,-76.48966222,3.43894889
514291,D70K26,Dg 70 entre Kr 26 y 26A,-76.49167556,3.43736222
514292,K26ID70,Kr 26I entre Dg 70 y 71,-76.49284722,3.43479889
514293,K26ID72B,Kr 26I entre Dg 72B y 72C,-76.49189056,3.43288639
514294,D72CK26J,Dg 72C entre Kr 26J y 26L,-76.49342778,3.43184917
514301,C72UK27G,Cl 72U entre Kr 27G y 27F,-76.48872222,3.42474000
514302,C72UK27,Cl 72U entre Kr 27 y 26R,-76.48773194,3.42662861
514303,C72UK26J,Cl 72U entre Kr 26J y 26I3,-76.48637000,3.42928250
514304,C72UK26H,Cl 72U entre Kr 26H3 y 26H2,-76.48556222,3.43083139
514305,C72UK26G,Cl 72U entre Kr 26G8 y 26G7,-76.48452917,3.43302556
514306,C72UK26F,Cl 72U entre Kr 26G7 y 26G8,-76.48473083,3.43281917
514307,C72U26H3,Cl 72U entre Kr 26G11 y 26H3,-76.48567083,3.43106139
514308,C72UK26I,Cl 72U entre Kr 26I2 y 26J,-76.48655722,3.42935667
514309,C72UK26S,Cl 72U entre Kr 26S y 27,-76.48782000,3.42692056
514310,K15C74A,Kr 15 entre Cl 74A y 74,-76.48234167,3.44633806
514312,C44K8,Cl 44 entre Kr 7 y 8,-76.50568778,3.45427722
514313,C44K81,Cl 44 entre Kr 8 y 7,-76.50547167,3.45437167
514314,K8C44B,Kr 8 entre 44B y 47,-76.50338889,3.45302028
514321,C122K25,Cl 122 entre Kr 25 y 26,-76.46549833,3.42898667
514322,K26JC122,Kr 26J entre Cl 122A y 122,-76.46686167,3.41785833
514323,C121K26Q,Cl 121 entre Kr 26R y 26Q,-76.47041972,3.41453028
514326,C123K281,Cl 123 entre Kr 28D5 y 28D7,-76.47153944,3.40506778
514330,K28FC12F,Kr 28F entre Cl 122F BIS y 122K,-76.47401361,3.40354500
514331,K28FC12C,Kr 28F entre Cl 122B y 122C,-76.47301500,3.40229556
514332,C123AK28,Cl 123A3 entre Kr 28E7 y 28E6,-76.47082611,3.40157972
514339,K28C112,Kr 28 entre Cl 108 y 112,-76.47751917,3.41379028
514340,C112K27G,Cl 112 entre Kr 27G y 27F,-76.47589389,3.41353167
514341,C112K27,Cl 112 entre Kr 27D y 27,-76.47502000,3.41508111
514342,C59K10,Cl 59 entre Kr 10 y 10A,-76.49346194,3.44979500
514343,K8C34A,Kr 8 entre Cl  35 y 34A,-76.51032250,3.45413611
514344,C59K10A,Cl 59 entre Kr 10A y 10,-76.49332083,3.44975056
514345,C73K8A,Cl 73 entre Kr 8A y 8B,-76.48335833,3.45064194
514346,K8C702,Kr 8 entre Cl 70,-76.48680556,3.45229556
514347,K8C703,Kr 8 con Cl 70,-76.48679167,3.45207111
514348,C44K15,Cl 44 entre Kr 15 y 14,-76.50305889,3.44476028
514349,C44K12C,Cl 44 entre Kr 12C y 12,-76.50373889,3.44743472
514350,C44K15A,Cl 44 entre Kr 15A y 16,-76.50289361,3.44360722
514351,D26F1T73,Dg 26F1 entre Tr 73A y Cl 73B,-76.48258000,3.43603694
514358,K26CC94,Kr 26C entre Cl 94 y 91,-76.47197444,3.42849750
514359,K26C91,Kr 26 entre Cl 91 y 89,-76.47328639,3.43012556
514360,C84K26DT,Cl 84 entre Kr 26D y Tr 103,-76.47470444,3.43148111
514361,C84K26D1,Cl 84 entre Kr 26D y Tr 103,-76.47636111,3.43020333
514362,K26GT103,Kr 26G entre Tr 103 y Cl 78,-76.47944833,3.43365194
514363,K26GC76,Kr 26G entre Cl 76 y 75,-76.48123306,3.43481750
514364,K26GC75,Kr 26G entre Cl 75 y 76,-76.48143500,3.43488639
514365,C73D151,Cl 73 entre Dg 15 Y 16,-76.48433972,3.44574167
514367,C73K25S1,Cl 73 entre Kr 25S y 25T,-76.48439500,3.44085833
514368,C73K26B2,Cl 73 entre Kr 26B2 y 26B1,-76.48377111,3.43907028
514369,C73K25U,Cl 73 entre Kr 25U y 25T,-76.48386417,3.44077944
514370,C73K26G6,Cl 73 entre Kr 26G6 y 26G7,-76.48423361,3.43334167
514371,C73K26G4,Cl 73 entre Kr 26G4 y 26G3,-76.48370806,3.43434194
514372,C73K26H3,Cl 73 entre Kr 26H3 y 26I,-76.48405500,3.42972667
514373,C73K26H2,Cl 73 entre Kr 26H3 y 26H2,-76.48352500,3.43015667
514374,C73K26M,Cl 73 entre Kr 26M y 26N,-76.48467611,3.42679972
514375,C73K26R,Cl 73 entre Kr 26R y 26P,-76.48434333,3.42637000
514376,C72YK27A,Cl 72Y entre Kr 27A y 27B,-76.48610861,3.42337333
514377,C73K27,Cl 73 entre Kr 27 y 26U,-76.48498667,3.42468333
514378,C79K28C1,Cl 79 entre Kr 28C y 28D,-76.48651417,3.41887917
514379,C79K28D2,Cl 79 entre Kr 28D y 28C,-76.48616278,3.41869944
514381,C73K26F1,Cl 73 entre Kr 26F1 y 26F,-76.48373528,3.43616444
514382,C73D191,Cl 73 entre Dg 19 y K22,-76.48438194,3.44367889
514384,C73D26I2,Cl 73 entre Dg 26I3 y 26I2,-76.48357167,3.42834500
514386,C44K9,Cl 44 entre Kr 9 y 8A,-76.50490611,3.45211278
514387,C44K11D,Cl 44 entre Kr 11D y 11F,-76.50440889,3.44933389
514388,K12C48,Kr 12 entre Cl 48 y 47,-76.50235833,3.44882500
514389,K12C45,Kr 12 entre Cl 45 y 48,-76.50228167,3.44875333
514390,K12C521,Kr 12 entre Cl 52 y 51,-76.49944333,3.44849333
514391,K12C522,Kr 12 entre Cl 52 y 53,-76.49848000,3.44826167
514392,K12C56,Kr 12 entre Cl 56 y 54,-76.49665500,3.44822500
514393,K12C55,Kr 12 entre Cl 55 y 56,-76.49645333,3.44804000
514396,C59K8,Cl 59 entre Kr 8 y 8A,-76.49298333,3.45185333
514397,C59K8A,Cl 59 entre Kr 8A y 8,-76.49293167,3.45186667
514399,C70K7RB,Cl 70 con Kr 7RBis,-76.48530556,3.45514222
514400,C73K25C,Cl 73 entre Kr 25C y 25C1,-76.48430444,3.43787139
514401,C73D18,Cl 73 entre Dg 18 y 17,-76.48377361,3.44516389
514402,K23C15,Kr 23 entre Kr 15 y Cl 58,-76.49500139,3.44265722
514403,T103K28B,Tr 103 entre Kr 28B y 28A,-76.47931111,3.41419556
514404,T103K27B,Tr 103 entre Kr 27B y 27A,-76.47876417,3.41725917
514405,RPETM,Retorno Patio ETM,-76.47529417,3.40603750
514406,C70K7BP1,Cl 70 entre Kr 7B Bis,-76.48521056,3.45498972
514407,C70K11P2,Cl 70 con Kr 11,-76.48793444,3.44981694
514408,K23C70,Kr 23 entre Cl 70 y 63,-76.49189917,3.44376806
514409,C70K11P1,Cl 70 con Kr 11,-76.48764694,3.44981556
514410,C70K7RP2,Cl 70 con Kr 7RBis,-76.48501694,3.45483722
514411,K8C72,Kr 8 entre Cl 72 y 72B,-76.48465111,3.45175778
514412,K8C7271,Kr 8 entre Cl 72 y 71,-76.48537694,3.45220750
514413,C70K7L7J,Cl 70 entre Kr 7lL y 7JBis,-76.48313194,3.45795778
514414,C70K7EB2,Cl 70 entre Kr 7E Bis y 7E,-76.48277472,3.46116833
514415,C76K28A,Cl 76 entre Kr 28A y 28,-76.48615889,3.42035861
514417,C73D26H,Cl 73 entre Dg 26G11 y Kr 26H,-76.48414444,3.43151528
514418,K28E4C12,Kr 28E4 Con Cl 125,-76.46927389,3.40173389
514419,K28E2C12,Kr 28E4 entre Cl 125A y 124B,-76.46915000,3.40286889
514420,K28EC123,K 28E con Cl 123A3 Colegio,-76.47078333,3.40317778
514421,K27C96,Kr 27 entre Cl 96 y 95,-76.47932000,3.41874028
514422,K27C9196,Kr 27 entre Cl 91 y 96,-76.47948583,3.41873611
514425,K24CD71A,Kr 24C Con Dg 71A1 y 70E,-76.48798278,3.43774278
514426,K24CD70A,Kr 24C Con Dg 70A1,-76.48885139,3.43928639
514427,T103D26O,Tr 103 entre Dg 26O,-76.47734417,3.42623722
514428,C121K26I,Cl 121 entre Kr 26I2 y 26I3,-76.46780000,3.41934333
514429,C121K263,Cl 121 entre Kr 26I3 y 26I2,-76.46765333,3.41933333
514431,C73D26G9,Cl 73 entre Dg 26G9 y 26G8,-76.48367000,3.43255194
514432,K28DC79,Kr 28D Con Cl 79,-76.48694639,3.41856667
514434,C61K7RB,Cl 61 con Kr 7R Bis,-76.48981444,3.45558444
514435,C73K8C,Cl 73 entre Kr 8C y 8A,-76.48277583,3.45038667
514436,K8AC73A,Kr 8A entre Cl 73A y 75,-76.48159806,3.45033167
514437,C78K8A1,Cl 78 entre Kr 8A y 8,-76.47988389,3.45000361
514438,C81K8A,Cl 81 entre Kr 8A y  9,-76.47806389,3.44970667
514439,K9AC79A,Kr 9A entre Cl 79A y 78,-76.47934639,3.44855972
514440,C75K12,Cl 75 con Kr 12,-76.48031250,3.44714639
514443,C73D26M,Cl 73 entre Kr 26M y Dg 26M,-76.48442778,3.42616611
514444,D70K26H3,Dg 70 entre Kr 26H3 y 26H,-76.49226917,3.43561667
514445,D70K26F,Dg 70 entre Kr 26 y 26F,-76.49153583,3.43754389
514446,D70K25C,Dg 70 entre Kr 25C y 25B,-76.49006722,3.43872389
514447,K24CD70,Kr 24C con Dg 70A2,-76.48879167,3.43909278
514448,K24CD70D,Kr 24C entre Dg 70D y 71A,-76.48792083,3.43756639
514449,D71AC72,Dg 71A con Cl 72,-76.48499111,3.44040222
514450,K7CC692,Kr 7C entre Cl 69 y 70,-76.48435444,3.46280750
514451,K7EBC69,Kr 7EBis entre Cl 69 y 67,-76.48399944,3.46071306
514452,K7LC67A,Kr 7LBis entre Cl 67A y 67,-76.48586333,3.45748500
514453,K7LC64,Kr 7LBis entre Cl 64 y 63,-76.48815278,3.45768389
514454,C63K7P,Cl 63 entre Kr 7P y 7PBis,-76.48816444,3.45631611
514455,C52K8,Cl 52 entre Kr 8 y 9,-76.49876361,3.45229722
514456,C52K10,Cl 52 entre Kr 10 y 11,-76.49898417,3.45003222
514457,C52K12,Cl 52 entre Kr 12 y 12A,-76.49920111,3.44802944
514458,C52K12C,Cl 52 entre Kr 12C y 12E,-76.49939333,3.44633389
514459,C52K14,Cl 52 entre Kr 14 y 15,-76.49955639,3.44463333
514460,C63K8,Cl 63 entre Kr 8 y 7VBis,-76.48841722,3.45282306
514461,C63K7S,Cl 63 entre Kr 7SBis y 7S,-76.48821194,3.45507667
514462,C63K7E,Cl 63 entre Kr 7E y 7DBis,-76.48895333,3.45969694
514463,K7CC64,Kr 7C entre Cl 64 y 65,-76.48847750,3.46153361
514464,K7CC68,Kr 7C entre Cl 68 y 69,-76.48577861,3.46251639
514465,K26JC121,Kr 26J entre Cl 121 y 122,-76.46787056,3.41813944
514466,C123K26,Cl 123 entre Kr 26H1 y 26H Bis,-76.46496333,3.42023778
514467,K29C80,Kr 25 entre Cl 79 y 80,-76.47521222,3.43755000
514468,K27C108,Kr 27 entre Cl 108 y 109,-76.47601194,3.41628111
514469,K27C109,Kr 27 entre Cl 109 y 108,-76.47594889,3.41637778
514470,K27C112,Kr 27 entre Cl 112 y 113,-76.47460972,3.41546000
514471,K7LC73,Kr 7LBIS entre Cl 73 y 76,-76.48051278,3.45683167
514472,K7LC76,Kr 7LBIS entre Cl 76 y 81,-76.47914000,3.45674000
514473,K28D9C12,Kr 28D9 entre Cl 122K y 122J,-76.47225889,3.40376194
514474,K28DC122,Kr 28D9 entre Cl 122J y 122K,-76.47240750,3.40370667
515001,C8K41,Cl 8 entre Kr 3 y 4,-76.53548139,3.45124944
515002,K39C401,Kr 39 entre Cl 40 y 39,-76.50596917,3.41731944
515006,K39C511,Kr 39 entre Cl 51 y 50,-76.49902528,3.41003417
515007,K39C482,Kr 39 entre Cl 48 y 49,-76.50018000,3.41089417
515008,K39C541,Kr 39 entre Cl 54 y 53,-76.49735417,3.40828194
515009,C54K392,Cl 54 entre Kr 39 y 38A,-76.49659583,3.40803639
515010,C55K32A1,Cl 55 entre Kr 32A y 33,-76.49368944,3.41045222
515011,C55K332,Cl 55 entre Kr 33 y 32A,-76.49340972,3.41023139
515012,C83K28E1,Cl 83 entre Kr 28E y 28E3,-76.48863167,3.41533861
515013,C83K28E3,Cl 83 entre Kr 28E3 y 28E,-76.48833472,3.41515861
515014,C55K291,Cl 55 entre Kr 29 y 30,-76.49201083,3.41212917
515015,C54K30,Cl 55 entre Kr 30 y 29,-76.49157861,3.41191278
515016,K39C461,Kr 39 entre Cl 46 y 45A,-76.50193806,3.41299694
515017,K39C45A,Kr 39 entre Cl 45A y 46,-76.50214306,3.41299139
515018,C55K331,Cl 55 entre Kr 33 y 34,-76.49489861,3.40920667
515019,C55K34,Cl 55 entre Kr 34 y 33,-76.49489806,3.40881250
515022,C54K39A,Cl 54 entre Kr 39 y 39A,-76.49780472,3.40746972
515023,C54K39H,Cl 54 entre Kr 39H y 40,-76.49940667,3.40608639
515024,C54K41,Cl 54 entre Kr 41 y 41B,-76.50056444,3.40534000
515025,K46C50,Kr 46 entre Cl 50 y 51,-76.50942833,3.40022722
515026,C54K49B,Cl 54 entre Kr 49B y  49C,-76.51155167,3.39534667
515027,K50C51,Kr 5O entre Cl 51 y 50,-76.51428167,3.39577667
515028,C48K47A,Cl 48 entre Kr 46D y 46C,-76.51173833,3.40094611
515029,C36K46,Cl 36 entre Kr 46 y 44A,-76.51748278,3.41002472
515030,C36K43,Cl 36 entre Kr 43 y 42B,-76.51537583,3.41204778
515036,C48K37,Cl 48 entre Kr 37 y 36,-76.49942806,3.41215556
515037,C48K32A,Cl 48 entre Kr 32A y 30D,-76.49683750,3.41464556
515038,K29C48,Kr 29 entre Cl 48 y 49,-76.49460222,3.41593528
515040,K29C83,Kr 29 entre Cl 83 y 79,-76.49157167,3.41297389
515041,C54K45,Cl 54 entre Kr 45 y 43C,-76.50701250,3.39912889
515042,C54K42C1,Cl 54 entre Kr 42C1 y 42C,-76.50502417,3.40091472
515043,C54K41G,Cl 54 entre Kr 41G y 41E3,-76.50316056,3.40271278
515044,C54K41D,Cl 54 entre Kr 41D y 41B,-76.50146889,3.40425806
515045,C54K41B,Cl 54 entre Kr 41B y 39E,-76.49848028,3.40648611
515046,K29C72Y,Kr 29 entre Cl 72Y y 48,-76.49466222,3.41620306
515048,C48K35,Cl 48 entre Kr 34 y 35,-76.49900583,3.41268222
515049,C48K38B,Cl 48 entre Kr 38B y 38C,-76.50100889,3.41090750
515050,C48K40,Cl 48 entre K40 y 40A,-76.50278194,3.40924972
515051,C48K41C,Cl 48 entre Kr 41C y 41D,-76.50460500,3.40756694
515052,C48K41F,Cl 48 entre Kr 41F y 41G,-76.50602056,3.40629417
515054,C54K43B,Cl 54 entre Kr 43B y 44,-76.50682639,3.39969444
515057,C48K40B,Cl 48 entre Kr 40B y 40A,-76.50290889,3.40903972
515058,K29C72U,Kr 29 entre Cl 48 y 72U,-76.49533333,3.41690500
515059,C72UK28E,Cl 72U entre Kr 28E6 y 28E5,-76.49389278,3.41912306
515060,C72UK28D,Cl 72U entre Kr 28D5 y D4,-76.49229528,3.42070389
515061,C83K28D,Cl 83 entre Kr 28D y 28D2,-76.48680833,3.41719806
515062,K29C73,Kr 29 con Cl 73,-76.49326361,3.41473417
515063,C48K32B,Cl 48 entre Kr 32A y 32B,-76.49710333,3.41446500
515064,K46C43,Kr 46 entre Cl 44 y 43,-76.51354472,3.40482806
515066,K46C40,Kr 46 entre Cl 40 y 41,-76.51600667,3.40714722
515067,K32AC54A,kR 32A entre Cl 54A y 54,-76.49396194,3.41139361
515068,K32AC50,Kr 32A entre Cl 50 y 49,-76.49589444,3.41341556
515069,K39C421,Kr 39 entre Cl 42 y 43,-76.50439778,3.41532861
515070,K42BC54C,Kr 42B entre Cl 54 y 54C,-76.50409583,3.40082333
515071,K42BC55,Kr 42B entre Cl 55C y 56,-76.50286056,3.39946444
515072,K42AC56C,Kr 42A entre Cl 56C y 57,-76.50182583,3.39831528
515077,K42BC53,Kr 42B entre Cl 53 y 51,-76.50516556,3.40218222
515078,K42BC50,Kr 42B entre Cl 50 y 48,-76.50697583,3.40415972
515079,K42BC46,Kr 42B entre Cl 46 y 45,-76.50935806,3.40666750
515080,K42BC44,Kr 42B entre Cl 44 y 43,-76.51043583,3.40780778
515081,K42BC41,Kr 42B entre Cl 41 y 40,-76.51271222,3.41022167
515082,K42BC38,Kr 42B entre Cl 38 y37,-76.51428028,3.41188361
515083,K42BC37,Kr 42B entre Cl 37 y 38A,-76.51449806,3.41188222
515084,K42BC40,Kr 42B entre Cl 40 y 41,-76.51292639,3.41023139
515085,K42BC43,K42B entre Cl 43 y 44,-76.51069361,3.40788861
515086,K42BC461,Kr 42B entre C46 y 47,-76.50882528,3.40591917
515087,K42BC48,Kr 42B entre Cl 48 y 50,-76.50726000,3.40423139
515088,K42BC51,Kr 42B entre Cl 51 y 53,-76.50548333,3.40229083
515105,C40K41A,Cl 40 entre Kr 41A y 41,-76.50885750,3.41427167
515106,C40K39C,Cl 40 entre K39C y 39B,-76.50687306,3.41615083
515107,C40K39A,Cl 40 entre Kr 39A y 39B,-76.50660361,3.41655444
515108,C40K40A,Cl 40 entre Kr 40A y 41,-76.50851139,3.41471139
515112,C70K28ED,Cl 70 entre Kr 28E y 28D5,-76.50025222,3.42652972
515114,K29C72Q,Kr 29 entre Cl 72Q y 72O,-76.49755167,3.41922528
515115,K29C72J,Kr 29 entre Cl 72J y 72I,-76.49888083,3.42064583
515117,C72IK28I,Cl 72I entre Kr 28I y 28F,-76.49805972,3.42189944
515120,K31C43,Kr 31 entre Cl 43 y 44,-76.49954528,3.41795056
515121,K31C46,Kr 31 entre C46 y 48,-76.49801167,3.41628306
515122,C48K30B,Cl 48 entre Cl 30B y 30,-76.49611833,3.41530694
515123,K29C51A,Kr 29 entre Cl 51A y 52A,-76.49301250,3.41422222
515124,K29C531,Kr 29 entre Cl 53 y 55,-76.49175194,3.41275222
515126,C72UK28A,Cl 72U entre Kr 28A y 28,-76.48978167,3.42310083
515127,K28C72U,Kr 28 entre Cl 72U y 72W,-76.48890083,3.42405056
515128,C72WK28,Cl 72W entre Kr 28-4 y 28A,-76.48962306,3.42249833
515129,C54K39E,Cl 54 entre Kr 39E y 39G,-76.49861667,3.40660139
515130,K41BC50,Kr 41B entre Cl 51 y 50,-76.50249222,3.40649028
515131,K41BC49,Kr 41B entre Cl 49 y 48,-76.50360528,3.40770583
515132,C48K38E,Cl 48 entre Kr 38E y 38C,-76.50150194,3.41035222
515133,K41C55,Kr 41B entre Cl 55 y 55A,-76.50016861,3.40371528
515134,C57K41E1,Cl 57C entre Kr 41E1 y 41E2,-76.50025389,3.40089444
515135,C57K47AB,Cl 57C entre Kr 47A Bis y 47A1,-76.50148778,3.39846778
515136,K42C56,Kr 42B entre Cl 56 y 55C,-76.50271278,3.39962722
515137,K42C55,Kr 42B entre Cl 55 y 54C,-76.50380444,3.40086028
515138,C54K46D,Cl 54 entre Kr 46D y 47,-76.50912167,3.39754167
515139,C48K50,Cl 48 entre Kr 49G y 49F,-76.51499167,3.39788667
515140,C48K49,Cl 48 entre Kr 49A y 49,-76.51376000,3.39910556
515141,K46C46,Kr 46 entre Cl 46 y 47,-76.51166472,3.40253667
515142,C36K46B,Cl 36 entre Kr 46B y 46C,-76.51947000,3.40886500
515143,C36K47B,Cl 36 entre Kr 47B y 48,-76.52072500,3.40756667
515144,C36K50,Cl 36 entre Kr 50 y 48,-76.52101833,3.40669167
515145,C36K47,Cl 36 entre Kr 47 y 46B,-76.51928528,3.40837778
515146,K46C44,Kr 46 entre Cl 44 y 45,-76.51333361,3.40431417
515147,C36K42,Cl 36 entre Kr 42 y 41G,-76.51367778,3.41366750
515148,C36K41E,Cl 36 entre Kr 41E y 41B,-76.51171750,3.41555250
515149,C36K39E,Cl 36 entre Kr 39E y 39C,-76.50934667,3.41783667
515150,K39C42B,Kr 39 entre Cl 42B y 42,-76.50421583,3.41543139
515151,K39C40,Kr 39 entre Cl 40 y 41,-76.50577500,3.41676028
515152,K39C38,Kr 39 entre Cl 38 y 37,-76.50732778,3.41871083
515153,K46C42,Kr 46 entre Cl 42 y 41,-76.51490778,3.40626000
515159,K41BC51,Kr 41B entre Cl 51 y 52,-76.50218389,3.40588694
515162,K46C57,Kr 46 entre Cl 57 y 56F1,-76.50403556,3.39444861
515163,K46C56E,Kr 46 entre Cl 56E y 56D,-76.50515722,3.39569833
515164,C56CK44,Cl 56C entre Kr 44 y 43A,-76.50404833,3.39713889
515167,C56CK42C,Cl 56C entre Kr 42C2 y 43A,-76.50379306,3.39747083
515168,C56CK45A,Cl 56C entre Cl 45A y 46,-76.50526083,3.39613472
515169,K46C56G,Kr 46 entre Cl 56G y 57,-76.50400556,3.39428333
515170,C57K46D,Cl 57 entre Kr 46E y 46D,-76.50480444,3.39215944
515171,C46K45,Cl 46 entre Kr 45 y 44A,-76.51150917,3.40360444
515175,C72IT28F,Cl 72I entre Tr 28F y 28E,-76.49612389,3.42359806
515176,T28EC72F,Tr 28E con Cl 72F4,-76.49750361,3.42433000
515177,K28EC72C,Kr 28E entre Cl 72C y 72B,-76.49925306,3.42490667
515178,K28DT72G,Kr 28D con Tr 72G,-76.49682833,3.42679361
515179,K28DC72F,Kr 28D entre Cl 72F4 y 72I,-76.49534333,3.42536611
515180,C72IT28E,Cl 72I con Tr 28E,-76.49622833,3.42372944
515181,C72IK28F,Cl 72I entre Kr 28F y 28F1,-76.49812194,3.42206028
515182,C42K29,Cl 42 entre Kr 29 y 29A,-76.49939361,3.42080000
515183,C42K30A,Cl 42 entre Kr 30A y 31,-76.50061917,3.41957778
515184,C57K47D,Cl 57 con Kr 47D,-76.50613972,3.39112722
515185,C57K46E1,Cl 57 entre Kr 46E y 46D,-76.50495944,3.39212222
515186,C57K48B,Cl 57 con Kr 48B,-76.50673389,3.39078694
515187,C48K43B,Cl 48 entre Kr 43B y 43ABis,-76.50935167,3.40311028
515188,C48K42A1,Cl 48 entre Kr 42A1 y 42ABis,-76.50711972,3.40519333
515189,C48K43E3,Cl 48 entre Kr 43E3 y 41E2,-76.50577167,3.40641167
515190,C72WK28C,Cl 72W entre Kr 28C y 28D,-76.49038333,3.42141333
515191,C72WK28E,Cl 72W entre Kr 28E y 28E2,-76.49199861,3.41918028
515192,C72K28E7,Cl 72W entre Kr 28E7 y 28E8,-76.49313667,3.41753028
515193,K28C72V,Kr 28g entre Cl 72V y 72U,-76.49428111,3.41772056
515194,C72UK28C,Cl 72U entre Kr 28C y 28B,-76.49067278,3.42229500
516004,K44C132,Kr 44 entre Cl 13 y 13A,-76.53225917,3.41410778
516005,K44C142,Kr 44 entre Cl 14 y 14B,-76.52820056,3.41288889
516006,K44C152,Kr 44 entre Cl 15 y 15Bis,-76.52583333,3.41214722
516007,K44C182,Kr 44 entre Cl 18 y 23,-76.52311000,3.41160917
516008,C25K42C2,Cl 25 entre Kr 42C y 42B,-76.52133806,3.41305278
516009,C25K41A2,Cl 25 entre Kr 41A y 41,-76.52119722,3.41656056
516010,K39C32A2,Kr 39 entre Cl 33 y 34,-76.51087583,3.41956139
516011,K39C171,Kr 39 entre Cl 17 y 16,-76.52462500,3.41873000
516015,C25K42,Cl 25 entre Kr 42 y 41D,-76.52124972,3.41458028
516017,D23C18,Dg 23 entre Cl 18 y 17,-76.52327833,3.43510167
516018,D23C18E,Dg 23 entre Cl 18E y 18F,-76.52332333,3.43453167
516019,C5K77,Cl 5 entre Kr 77 y 76,-76.54489000,3.38977500
516020,C10K73,Cl 10 entre Kr 73 y 72,-76.54430667,3.39238500
516022,C10K70,Cl 10 entre Kr 70 y 68,-76.54335000,3.39531833
516024,C10K66A,Cl 10 entre Kr 66A y 66,-76.54259389,3.39760222
516025,C10K63,Cl 10 entre Kr 63 y 63A,-76.54182167,3.40133833
516026,C10K64A,Cl 10 entre Kr 64A y 61,-76.54140000,3.40134667
516027,C10K61,Cl 10 entre Kr 61 y 61A,-76.54057778,3.40532917
516028,C10K57,Cl 10 entre Kr 57 y 56,-76.53992167,3.40589000
516030,C10K53,Cl 10 entre Kr 53 y 50,-76.53903000,3.40867167
516031,C10K49,Cl 10 entre Kr 49 y 50,-76.53846833,3.41188833
516032,C10K48B,Cl 10 entre Kr 48B y 48A,-76.53790167,3.41208000
516033,C10K44A,Cl 10 entre Kr 44A y 46,-76.53752167,3.41485833
516034,C10K44,Cl 10 con Kr 44,-76.53677500,3.41562389
516035,C10K42,Cl 10 entre Kr 42 y 44,-76.53649833,3.41777500
516036,C10K42A,Cl 10 entre Kr 42 y 41A,-76.53604889,3.41785806
516037,C10K39,Cl 10 entre Kr 39 Y 41,-76.53568667,3.42027500
516038,C10K38A,Cl 10 entre Kr 38A y 38,-76.53484333,3.42148667
516040,C10K35,Cl 10 entre Kr 35 y 34,-76.53393000,3.42430333
516041,D23C131,Dg 23 entre Cl 13 y 12A,-76.52826500,3.43167833
516042,D23C11,Dg 23 entre Cl 11 y 12,-76.52809000,3.43129500
516043,D23C13B,Dg 23 entre Cl 13B y 13,-76.52720500,3.43246500
516044,D23C13,Dg 23 entre Cl 13 y 14,-76.52670667,3.43220167
516045,D23C14A,Dg 23 entre Cl 14A y 13B,-76.52647722,3.43292806
516046,D23C14,Dg 23 entre Cl 14 y 15,-76.52545500,3.43306667
516047,K23C19B1,Kr 23 entre Cl 19B y 19A,-76.52129500,3.43565500
516048,K23C19A,Kr 23 entre Cl 19A y 19B,-76.52128222,3.43512667
516049,C13K801,Cl 13 con Kr 801,-76.53879833,3.38679444
516050,C13K802,Cl 13 con Kr 802,-76.53851472,3.38684917
516051,C13K75,Cl 13 entre Kr 75 y 76,-76.53868333,3.38976167
516052,C13K78,Cl 13 entre Kr 80 y 75,-76.53849000,3.38928667
516053,C13K701,Cl 13 entre Kr 70 y 72,-76.53843167,3.39282667
516054,C13K7572,Cl 13 entre Kr 75 y 72,-76.53830861,3.39192111
516055,C13K65AB,Cl 13 entre Kr 65A Bis y 65B,-76.53780000,3.39896000
516056,C13K68,Cl 13 entre Kr 68 y 66,-76.53783167,3.39718000
516057,C13K59,Cl 13 entre Kr 59 y 64,-76.53690306,3.40171750
516058,C13K65,Cl 13 entre Kr 65 y 64A,-76.53688000,3.40104222
516059,C13K56,Cl 13 con Kr 56,-76.53587167,3.40490667
516060,C13K57,Cl 13 entre Kr 57 y 56,-76.53587833,3.40400500
516061,C13K551,Cl 13 entre Kr 50 y 53,-76.53516667,3.40708833
516062,C13K552,Cl 13 entre Kr 56 y 53,-76.53502833,3.40666167
516063,C13K49A,Cl 13 entre Kr 49A y 49B,-76.53435028,3.40967472
516064,C13K50,Cl 13 entre Kr 50 y 49A,-76.53424056,3.40926639
516065,C13K47A,Cl 13 entre Kr 47A y 47,-76.53343667,3.41191833
516066,C13K47,Cl 13 entre Kr 47 y 47A,-76.53352000,3.41196500
516067,C13K44A,Cl 13 entre Kr 45 y 44A,-76.53283889,3.41357861
516068,C13K44,Cl 13 entre Kr 44 y 44A,-76.53284500,3.41398500
516069,C13K41A1,Cl 13 entre Kr 41A y 42,-76.53194000,3.41673833
516070,C13K41A2,Cl 13 entre Kr 41A y 41,-76.53184833,3.41672333
516071,C13K37,Cl 13 entre Kr 37 y 38,-76.53071750,3.42066528
516072,C13K39,Cl 13 entre Kr 39 y 38,-76.53084000,3.41978500
516073,C13K341,Cl 13 entre Kr 34 y 35,-76.52999750,3.42298222
516074,C13K342,Cl 13 entre Kr 34 y 33A,-76.52955500,3.42365833
516076,C13K32A,Cl 13 entre Kr 32 y 31,-76.52868472,3.42637611
516077,C13K32,Cl 13 entre Kr 32 y 33,-76.52930500,3.42504139
516078,C13C141,Cl 13 con Cl 141,-76.52768167,3.42930194
516079,C13C14,Cl 13 con Cl 14,-76.52726639,3.42949750
516080,K46C522,Kr 46 entre Cl 52 y 51A,-76.50831667,3.39931778
516081,K46C48,Kr 46 entre Cl 48 y 47,-76.51101556,3.40216722
516082,K46C462,Kr 46 entre Cl 46 y 45,-76.51213361,3.40328250
516084,K46C452,Kr 46 entre Cl 45 y 44,-76.51324944,3.40448444
516085,K46C42A1,Kr 46 entre Cl 42 y 43,-76.51446750,3.40555944
516088,K46C402,Kr 46 entre Cl 40 y 39,-76.51651611,3.40793750
516089,K46C371,Kr 46 entre Cl 37 y 38A,-76.51761194,3.40879278
516090,K46C372,Kr 46 entre Cl 37 y 36,-76.51753333,3.40910667
516091,C27K431,Cl 27 entre Kr 43A y 45A,-76.51829278,3.41018889
516092,C27K36,Cl 27 entre Kr 36 y 44,-76.51801667,3.41079000
516093,C27K42B1,Cl 27 entre Kr 42B y 43,-76.51800167,3.41272833
516094,C27K42B2,Cl 27 entre Kr 42B y 42A,-76.51770833,3.41360500
516096,C27K422,Cl 27 entre Kr 42 y 41D,-76.51765361,3.41481111
516099,C27K371,Cl 27 entre Kr 37A y 39,-76.51746500,3.41960972
516100,C27K392,Cl 27 entre Kr 39 y 37,-76.51728250,3.41976750
516103,C46K42C2,Cl 46 entre Kr 42C y 42B,-76.50902000,3.40599333
516106,K41BC46,Kr 41B entre Cl 46 y 47,-76.50488861,3.40873833
516107,C54K41DE,Cl 54 entre Kr 41D y 41E,-76.50304778,3.40330306
516108,C54K42B1,Cl 54 entre Kr 42B y 42C,-76.50528833,3.40120500
516109,K41BC47,Kr 41B entre Cl 47 y 46,-76.50481778,3.40901000
516110,C13K671,Cl 13 entre Kr 67 y 68,-76.53817167,3.39600167
516111,K41BC45,Kr 41B entre Cl 45 y 44,-76.50645083,3.41077278
516112,K42C26,Kr 42 entre Cl 25 y 26B,-76.52057917,3.41423500
516113,K41BC42A,Kr 41B entre Cl 42A y 42,-76.50776722,3.41218306
516114,K41BC41,Kr 41B entre Cl 41 y 42,-76.50835917,3.41245444
516115,K41BC44,Kr 44 entre Cl 44 y 45,-76.50666083,3.41061444
516119,K56C18,Kr 56 entre Cl 18 y 18A,-76.52529861,3.40166889
516120,C25K56,Cl 25 entre Kr 56 y 61,-76.52367556,3.40074861
516122,C10K50,Cl 10 entre Kr 50 y 53,-76.53942167,3.40891833
516124,K66C17,Kr 66 entre Cl 17 y 18,-76.52628500,3.39723056
516127,K56C18A,Kr 56 entre Cl 18A y 18,-76.52534694,3.40189833
516128,K56C16,Kr 56 entre Cl 16 y 15,-76.52832389,3.40287139
516129,C14K58,Cl 14 entre Kr 58 y 65,-76.53198861,3.40177056
516130,C14K65,Cl 14 entre Kr 65 y 65C,-76.53247083,3.39945194
516131,K50C9,Kr 50 entre Cl 9 y 9B,-76.54094333,3.41077500
516132,K50C12A,Kr 50 entre C12A y 13,-76.53547389,3.40894389
516133,K50C13E,Kr 50 entre Cl 13E,-76.53154750,3.40766944
516134,K42C26D,Kr 42 entre Cl 26D y 27,-76.51846194,3.41429889
516137,K44C12,Kr 44 entre Cl 12 y 12B,-76.53444694,3.41482722
516138,C25K70,Cl 25 entre Kr 70 y 69 Hacienda,-76.52368000,3.39286694
516139,C25K69A,Cl 25 entre Kr 69A y 70 Clinica Comfandi,-76.52437472,3.39277972
516140,C25K69,Cl 25 entre Kr 69 y 68B,-76.52345278,3.39583500
516141,K69C26,Kr 69 entre Cl 26 y 29,-76.52206472,3.39456139
516142,C42K69,Cl 42 entre Kr 69 y 68,-76.51877444,3.39460222
516143,C42K63,Cl 42 entre Kr 63 y 55,-76.51735583,3.39596306
516144,K50C41,Kr 50 entre Cl 41 y 40A,-76.51743194,3.39758333
516145,D65K50,Dg 65 entre Kr 50 y 33,-76.52138028,3.39916361
516146,C16K65,Cl 16 entre Kr 65 y 62,-76.52760111,3.39957500
516147,C16K56,Cl 16 entre Kr 56 y 53,-76.52732167,3.40421639
516148,C16K49A,Cl 16 entre Kr 49A y 49,-76.52655194,3.40764639
516149,C16K46A,Cl 16 entre Kr 46A y 46,-76.52558889,3.41068806
516150,C17K37A,Cl 17 entre Kr 37A y 36B,-76.52412639,3.42035222
516151,C17K33A,Cl 17 entre Kr 33A y 33,-76.52427833,3.42371556
516152,C17K32,Cl 17 entre Kr 32 y 31A,-76.52437667,3.42600528
516153,C17K29B,Cl 17 entre Kr 29B y 29A,-76.52449861,3.42827111
516154,K25C17,Kr 25 entre Cl 17A y 17,-76.52555583,3.43053556
516155,K25C18A,Kr 25 entre Cl 18A y 17A,-76.52492000,3.43099361
516156,C15K29A,Cl 15 entre Kr 29A y 30,-76.52605111,3.42624889
516157,C15K33,Cl 15 entre Kr 33 y 33A,-76.52597361,3.42373917
516158,K35C16,Kr 35 entre Cl 16 y 17,-76.52526000,3.42151389
516159,K35C18,Kr 35 entre Cl 18 y 19,-76.52279806,3.42163139
516160,C23K36C,Cl 23 entre Kr 36C y 39,-76.52199833,3.41987444
516161,C23K40A,Cl 23 entre Kr 40A y 40B,-76.52226250,3.41740722
516162,C23K42A,Cl 23 entre Kr 42A y 42B,-76.52274250,3.41312083
516163,C23K45,Cl 23 entre Kr 45 y 46,-76.52304139,3.41035583
516164,C23K49,Cl 23 entre Kr 49 y 49A,-76.52339583,3.40704083
516165,K50C18,Kr 50 entre Cl 18 y 17A,-76.52518611,3.40593222
516166,C16K53,Cl 16 entre Kr 53 y 56,-76.52752361,3.40420417
516167,C16K561,Cl 16 entre Kr 56 y 65,-76.52782028,3.40006361
516168,C36K40,Cl 36 entre Kr 40 y  40A,-76.51040528,3.41750639
516169,C36K41A,Cl 36 entre Kr 41A y 41B,-76.51178444,3.41617222
516170,C36K42A,Cl 36 entre Kr 42A y 42B,-76.51488222,3.41320556
516171,C36K44,Cl 36 entre Kr 43 y 44,-76.51695889,3.41120417
516177,C13K69,Cl 13 entre Kr 69 y 68,-76.53804861,3.39485778
516184,C16K69,Cl 16 con Kr 69,-76.52790778,3.39476083
516185,K66C13E,Kr 66 entre Cl 13E y 13D,-76.53400444,3.39810944
516186,K66C13B,Kr 66 entre Cl 13B y 13,-76.53662333,3.39813028
516187,K66C131,Kr 66 entre Cl 13 y 12,-76.53877889,3.39814389
516192,C25K731,Cl 25 entre Kr 73 y 70,-76.52398667,3.39068500
516193,C25K73,Cl 25 entre Kr 70 y 73,-76.52451667,3.39062667
516194,C25K68A,Cl 25 entre Kr 68A y 68,-76.52317333,3.39635167
516195,C25K66,Cl 25 entre Kr 66 y 68,-76.52438500,3.39563833
516196,C25D66,Cl 25 entre Dg 66 y 65,-76.52298667,3.39833333
516197,K66C18,Kr 66 entre Cl 25 y 18,-76.52628944,3.39736944
516198,K66C16,Kr 66 entre Cl 16 y 14C,-76.52869556,3.39766556
516200,K66C14C,Kr 66 entre Cl 14C y 14,-76.53117833,3.39799333
516202,C14K66,Cl 14 entre Kr 66 y 65,-76.53220556,3.39905306
516203,C14K64B,Cl 14 entre Kr 64Bis y 64A,-76.53168333,3.40189667
516204,C14K56,Cl 14 entre Kr 56 y 54,-76.53105611,3.40442583
516205,C14K54,Cl 14 entre Kr 54 y 56,-76.53120944,3.40462778
516206,C14K53,Cl 14 entre Kr 53 y 50,-76.53049944,3.40653528
516207,C14K50,Cl 14 entre Kr 50 y 53,-76.53065694,3.40684722
516209,C14K47,Cl 14 entre Kr 47 y 50,-76.52974361,3.40996611
516211,C14K442,Cl 14 entre Kr 44 y 45,-76.52905833,3.41242833
516212,C14K43,Cl 14 entre Kr 43 y 42,-76.52811528,3.41507111
516213,C14K42BS,Cl 14 entre Kr 42Bs y 43,-76.52831750,3.41508444
516214,C14K40A,Cl 14 entre Kr 40A y 40,-76.52761583,3.41698306
516215,C14K40,Cl 14 entre Kr 40 y 40A,-76.52769694,3.41733250
516216,C14K38A,Cl 14 entre Kr 38A y 37A,-76.52730556,3.41913417
516217,C14K37,Cl 14 entre Kr 37 y 39,-76.52749778,3.41941278
516218,C14K34,Cl 14 entre Kr 34 y 33A,-76.52749611,3.42289944
516219,C14K33A,Cl 14 entre Kr 33A y 34,-76.52769167,3.42273083
516220,C14K32,Cl 14 entre Kr 32 y 31,-76.52765250,3.42603000
516221,C14K31,Cl 14 entre Kr 31 y 32,-76.52788278,3.42602972
516224,C14K72,Cl 14 entre Kr 72 y 75,-76.53259333,3.39027833
516225,C14K76,Cl 14 entre Kr 76 y 73,-76.53241167,3.38989333
516226,C14K69A,Cl 14 entre Kr 69A y 70,-76.53254833,3.39391583
516227,C14K70,Cl 14 entre Kr 70 y 69A,-76.53233917,3.39407806
516228,C14K66A,Cl 14 entre Kr 66 y 66A,-76.53241167,3.39736000
516230,C25K561,Cl 25 entre Kr 56 y 61,-76.52347639,3.40091028
516231,K56C14,Kr 56 entre Cl 14 y 14C,-76.53036222,3.40333333
516232,K56C15,Kr 56 entre Cl 15 y 16,-76.52864833,3.40275778
516233,K56C7A,Kr 56 entre Cl 7A y 6A,-76.54489944,3.40825639
516234,C25K41,Cl 25 entre Kr 41 y 40B,-76.52285500,3.40130917
516235,C13K29B,Cl 13 entre Kr 29B y 31,-76.52851556,3.42748139
516236,C14K6867,Cl 14 entre Kr 68 y 67,-76.53229667,3.39672222
516237,C14K49,Cl 14 entre Kr 49 y 48,-76.52974500,3.40927111
516238,C14K46,Cl 14 entre Kr 46 y 45,-76.52898750,3.41201472
516239,K39C15,Kr 39 entre Cl 15 y 14C,-76.52633250,3.41838861
516240,K39C26C,Kr 39 entre Cl 26C y 26E,-76.51833944,3.41927361
516241,K39C13B,Kr 39 entre Cl 13B y 13A,-76.52975750,3.41900611
516242,K39C11B,Kr 39 entre Cl 11B y 10A,-76.53418306,3.42045750
516243,C27K40B,Cl 27 entre Kr 40B y 40A,-76.51738389,3.41784444
516244,C27K41,Cl 27 entre Kr 41 y 41A,-76.51761417,3.41675722
516245,C27K41C,Cl 27 entre Kr 41C y 41D,-76.51776139,3.41527639
516246,K66C13A,Kr 66 entre Cl 13A y 13B,-76.53661889,3.39795528
516247,K66C14,Kr 66 entre Cl 14C y 14,-76.53089667,3.39771222
516248,K66C15A,Kr 66 entre Cl 15A y 16,-76.52886528,3.39746861
516249,K50D66,Kr 50 con Dg 66,-76.51880056,3.39870250
516250,C16K68,Cl 16 entre Cr 68 y 66,-76.52782639,3.39651306
516251,C16K682,Cl 16 entre Cr 68,-76.52803222,3.39591361
516252,C16K692,Cl 16 entre Cr 69 y 70,-76.52817306,3.39377000
516253,K26C16,Kr 26 entre Cl 16 y 15,-76.52582917,3.42874778
516254,K80C13B,Kr 80 entre Cl 13B y 13A,-76.53624861,3.38728722
517002,C8K10,Cl 8 entre Kr 10 y 12,-76.53404833,3.44625333
517006,K56C82,Kr 56 entre Cl 8 y 9,-76.54341111,3.40760972
517007,C9K512,Cl 9 entre Kr 53 y  52A,-76.54198667,3.40969333
517008,C9K502,Cl 9 entre Kr 50 y 48,-76.54086667,3.41331000
517009,C9K462,Cl 9 entre Kr 46 y 44,-76.54021333,3.41548500
517011,K39C9A1,Kr 39 entre Cl 9A y 9,-76.53751556,3.42129306
517012,K39C61,Kr 39 entre Cl 6 y 5F,-76.54255750,3.42248528
517013,K39C5B1,Kr 39 entre Cl 5B y 5A,-76.54511500,3.42378833
517014,K52C31,Kr 52 entre Cl 3 y 2,-76.55280444,3.41547750
517015,K52C22,Kr 52 entre Cl 2 y 3,-76.55269611,3.41531000
517016,C1K521,Cl 1 entre Kr 52 y 53,-76.55512333,3.41515500
517017,C1K532,Cl 1 entre Kr 53 y 52,-76.55492917,3.41501833
517018,C1K55B1,Cl 1 entre Kr 55B y 56,-76.55575472,3.41138389
517020,C1K591,Cl 1 entre Kr 59 y 60,-76.55581000,3.40755000
517021,C1K592,Cl 1 entre Kr 60 y 59 2,-76.55563167,3.40738500
517023,C1K622,Cl 1 entre Kr 62 y 60,-76.55581583,3.40536639
517025,C1K641,Cl 1 entre Kr 64 y 64A,-76.55690056,3.40060639
517026,C1K64A2,Cl 1 entre Kr 65A y 64A,-76.55677000,3.40019972
517027,C1K66B1,Cl 1 entre Kr 66B y 67,-76.55712056,3.39495000
517028,C1K692,Cl 1 entre Kr 69 y 67,-76.55692667,3.39466833
517029,K70C1OE1,Kr 70 entre Cl 1Oe y 1AOe,-76.55730000,3.39256333
517030,C2OEK721,Cl 2Oe entre Kr 72 y 73B,-76.55796861,3.39058167
517031,C2AOK74C,Cl 2AOe entre Kr 74C y 74D,-76.55854833,3.38911667
517032,C2AOEK75,Cl 2AOe entre Kr 75 y 75A,-76.55878889,3.38760667
517033,C1AOEK75,Cl 1AOe entre Kr 75 y 74B,-76.55737500,3.38916667
517034,C3OD511,Cl 3O entre Dg 51 y 50,-76.55622861,3.41684167
517035,D50C61,Dg 50 entre Cl 6 y 7,-76.55800222,3.41618833
517037,K52D502,Kr 52 entre Dg 50 y 51,-76.55961917,3.41557472
517038,D51C82,Dg 51 entre Cl 8 y 7,-76.55850111,3.41541889
517039,D51C52,Dg 51 entre Cl 5 y 4,-76.55671750,3.41606222
517041,C2AK62B1,Cl 2A con Kr 62B,-76.55203833,3.40347500
517042,C2AK64A1,Cl 2A entre Kr 64 y 64A,-76.55233139,3.40082167
517043,C2AK65A1,Cl 2A entre Kr 65A y 66,-76.55238472,3.39835417
517045,C3K65A,Cl 3 entre Kr 65A y 65,-76.54979861,3.39934083
517046,C3K64,Cl 3 entre Kr 64 y 63A,-76.54974000,3.40124833
517050,C3K602,Cl 3 entre Kr 60 y 58,-76.54969056,3.40692056
517052,C2K532,Cl 2 entre Kr 53 y 52,-76.55345333,3.41298000
517058,C1K501,Cl 1 entre Kr 52 y 50,-76.55416333,3.41790500
517059,C1K502,Cl 1 entre Kr 50 y Dg 51,-76.55434500,3.41780333
517060,C1K461,Cl 1 entre Kr 46 y 45,-76.55308167,3.42086167
517061,C1K462,Cl 1 entre Kr 44 y 45,-76.55327722,3.42123472
517062,C1K441,Cl 1 entre Kr 44 y 42,-76.55276833,3.42342000
517063,C1K442,Cl 1 entre Kr 39 y 40,-76.55254333,3.42454333
517064,C1K42,Cl 1 entre Kr 42 y 40,-76.55256028,3.42430556
517065,D37C3A1,Dg 37 entre Cl 3A y 4,-76.54970194,3.42731611
517066,D37AC41,Dg 37A entre Cl 4 y 4B,-76.54748000,3.42855000
517067,C4BK36B1,Cl 4B entre Kr 36B y 36,-76.54644167,3.43116667
517068,K36C4D1,Kr 36 entre Cl 4D y 5,-76.54409667,3.43129833
517072,C5K38A2,Cl 5 entre Kr 38A y 38C,-76.54584333,3.42691500
517076,C5K701,Cl 5 entre Kr 70 y 73,-76.54596833,3.39290028
517083,C1AK73B1,Cl 1AOe entre Kr 73B y 73A,-76.55721667,3.39044500
517084,C1AOEK72,Cl 1AOe entre Kr 72 y 70,-76.55719833,3.39220000
517090,C2AK791,Cl 2A entre Kr 79 y 78,-76.55194000,3.38726056
517091,C1CK782,Cl 1C con Kr 77A y 78,-76.55381139,3.38690778
517093,C1CK74A2,Cl 1C entre Kr 74A y 74,-76.55383722,3.38988639
517096,K73C2B2,Kr 73 entre Cl 2A y 2C,-76.55109083,3.39129167
517097,K73C2C2,Kr 73 entre Cl 2C y 3,-76.54936750,3.39149833
517102,C9K65A,Cl 9 entre Kr 65A y 65,-76.54438167,3.39916333
517103,C9K63A,Cl 9 entre Kr 63 y 62C,-76.54407667,3.40228833
517104,C9K61A,Cl 9 entre Kr 61A y 61,-76.54336333,3.40492167
517105,C9K56,Cl 9 entre Kr 56 y 55,-76.54245167,3.40796000
517106,C9K43,Cl 9 entre Kr 43 y 42,-76.53928167,3.41861000
517107,C9K39,Cl 9 entre Kr 39 y 38,-76.53818333,3.42238833
517108,C9K37,Cl 9 entre Kr 37 y 36,-76.53760333,3.42557667
517109,C6K24A,Cl 6 entre Kr 24A y 25,-76.53880167,3.43541667
517110,C6K26,Cl 6 entre Kr 26 y 27,-76.53887167,3.43370833
517111,C6K29,Cl 6 entre Kr 29 y 30,-76.53895833,3.43145667
517113,C6K36,Cl 6 entre Kr 34 y 36,-76.53940167,3.42779833
517115,C6K42,Cl 6 entre Kr 42 y 43,-76.54298667,3.41957000
517117,C6K50,Cl 6 entre Kr 50 y Cl 5,-76.54639167,3.41372333
517119,K39C7A,Kr 39 entre Cl 7A y 7,-76.54041500,3.42188333
517121,K66C10,Kr 66 entre C 9 y 10,-76.54341806,3.39797944
517122,K66C12,Kr 66 entre Cl 11 y 12,-76.53942861,3.39796528
517123,K66C13B2,Kr 66 entre Cl 13B y 13E,-76.53418139,3.39792972
517125,C10K332,Cl 10 entre Kr 33 y 39,-76.53476833,3.42316750
517126,K67C1D,Kr 67 entre Cl 1D y 1C,-76.55349333,3.39529639
517129,C2AK76A,Cl 2A entre Kr 76A y 76,-76.55136361,3.38924056
517131,C5K7068,Cl 5 entre Kr 70 y 68,-76.54575167,3.39498833
517132,C1K37A,Cl 1 entre Kra 37A y 37,-76.55109167,3.42738306
517133,C10OEK37,Cl 10 Oe entre Kr 37 y 36C,-76.55130472,3.43087222
517134,C10OEK25,Cl 10 Oe con Kr 25D,-76.54960722,3.43416222
517143,K56C1AOE,Kr 56 entre Cl 1 y 2 Oe,-76.55679222,3.41109667
517144,K56C7OE,Kr 56 entre Cl 7 y 8 Oe,-76.55910806,3.41218806
517147,C13OEK55,Cl 13OE entre Kr 56 y 55,-76.56481944,3.40953778
517150,D52K54D,Dg 25 entre Kr 54D y 53,-76.56157861,3.41464528
517151,C1K54,Cl 1 entre Kr 52 y 54,-76.55563472,3.41351444
517152,C1K38C,Cl 1 entre Kr 38D y 38C,-76.55160278,3.42618361
517154,K57C3,Kr 57 entre Cl 3 y 2A,-76.55077139,3.40847306
517155,C2AK58,Cl 2A entre Kr 58 y 60,-76.55162000,3.40723556
517156,C2K66A,Cl 2 entre Kr 66A y 66B,-76.55324611,3.39680500
